UF,CIDADE,LONG,LAT
RONDÔNIA,ALTA FLORESTA D'OESTE,-61.9998238962936,-11.9355403047646
RONDÔNIA,ARIQUEMES,-63.0332692780484,-9.9084628665672
RONDÔNIA,CABIXI,-60.5443135812009,-13.4997634596963
RONDÔNIA,CACOAL,-61.4429442118224,-11.4338650286852
RONDÔNIA,CEREJEIRAS,-60.8184261646815,-13.1950330320399
RONDÔNIA,COLORADO DO OESTE,-60.5550674630789,-13.1305638414553
RONDÔNIA,CORUMBIARA,-60.9487011706614,-12.9975202364834
RONDÔNIA,COSTA MARQUES,-64.2316539391172,-12.4360138777142
RONDÔNIA,ESPIGÃO D'OESTE,-61.0201731132847,-11.5285546333473
RONDÔNIA,GUAJARÁ-MIRIM,-65.3239518196923,-10.7738837406705
RONDÔNIA,JARU,-62.4762307081317,-10.4359487678844
RONDÔNIA,JI-PARANÁ,-61.9450945826841,-10.8820513183490
RONDÔNIA,MACHADINHO D'OESTE,-61.9995925724466,-9.4255624800000
RONDÔNIA,NOVA BRASILÂNDIA D'OESTE,-62.3082301630190,-11.7213254138559
RONDÔNIA,OURO PRETO DO OESTE,-62.2610551904363,-10.7235739008135
RONDÔNIA,PIMENTA BUENO,-61.1836656736420,-11.6775369900000
RONDÔNIA,PORTO VELHO,-63.8314456543611,-8.7688917900000
RONDÔNIA,PRESIDENTE MÉDICI,-61.9094386835298,-11.1732050162268
RONDÔNIA,RIO CRESPO,-62.9000103659589,-9.7055367097395
RONDÔNIA,ROLIM DE MOURA,-61.7857809351854,-11.7222589133808
RONDÔNIA,SANTA LUZIA D'OESTE,-61.7733054630545,-11.9084233324690
RONDÔNIA,VILHENA,-60.1385838660987,-12.7413734718029
RONDÔNIA,SÃO MIGUEL DO GUAPORÉ,-62.7200634814364,-11.6994897438059
RONDÔNIA,NOVA MAMORÉ,-65.3291490231467,-10.4117712947002
RONDÔNIA,ALVORADA D'OESTE,-62.2772748656972,-11.3441300234334
RONDÔNIA,ALTO ALEGRE DOS PARECIS,-61.8530771686030,-12.1317772245709
RONDÔNIA,ALTO PARAÍSO,-63.3176294334976,-9.7166667380773
RONDÔNIA,BURITIS,-63.8296787917565,-10.2098054072356
RONDÔNIA,NOVO HORIZONTE DO OESTE,-61.9943876627606,-11.7097429200152
RONDÔNIA,CACAULÂNDIA,-62.9031899345687,-10.3388728393928
RONDÔNIA,CAMPO NOVO DE RONDÔNIA,-63.6249914265426,-10.5684164693485
RONDÔNIA,CANDEIAS DO JAMARI,-63.7000200718298,-8.7850207034775
RONDÔNIA,CASTANHEIRAS,-61.9491611964662,-11.4268422254625
RONDÔNIA,CHUPINGUAIA,-60.9018477499554,-12.5568407610938
RONDÔNIA,CUJUBIM,-62.5871745319209,-9.3781933990571
RONDÔNIA,GOVERNADOR JORGE TEIXEIRA,-62.7404576394632,-10.6120717726075
RONDÔNIA,ITAPUÃ DO OESTE,-63.1823370165183,-9.1918716753279
RONDÔNIA,MINISTRO ANDREAZZA,-61.5189219301053,-11.1962379841591
RONDÔNIA,MIRANTE DA SERRA,-62.6694270952566,-11.0456092899370
RONDÔNIA,MONTE NEGRO,-63.2955591672175,-10.2630977558830
RONDÔNIA,NOVA UNIÃO,-62.5550893988800,-10.9155320416628
RONDÔNIA,PARECIS,-61.5979979726776,-12.1798270507077
RONDÔNIA,PIMENTEIRAS DO OESTE,-61.0443790025384,-13.4765620024615
RONDÔNIA,PRIMAVERA DE RONDÔNIA,-61.3165462429165,-11.8257069542468
RONDÔNIA,SÃO FELIPE D'OESTE,-61.5125081133327,-11.9143893546886
RONDÔNIA,SÃO FRANCISCO DO GUAPORÉ,-63.5708647107649,-12.0637984122334
RONDÔNIA,SERINGUEIRAS,-63.0387609977072,-11.7671166356070
RONDÔNIA,TEIXEIRÓPOLIS,-62.2559222539546,-10.9321692860399
RONDÔNIA,THEOBROMA,-62.3451455299349,-10.2487305520261
RONDÔNIA,URUPÁ,-62.3706324537667,-11.1285452756794
RONDÔNIA,VALE DO ANARI,-62.1768234421278,-9.8513927080618
RONDÔNIA,VALE DO PARAÍSO,-62.1343903568099,-10.4310526845565
ACRE,ACRELÂNDIA,-67.0523165800206,-10.0737938924635
ACRE,ASSIS BRASIL,-69.5634591746677,-10.9428656809172
ACRE,BRASILÉIA,-68.7479434259584,-11.0164110190858
ACRE,BUJARI,-67.9518592792015,-9.8200196267094
ACRE,CAPIXABA,-67.6735079719432,-10.5697677087928
ACRE,CRUZEIRO DO SUL,-72.6725313174358,-7.6306900050098
ACRE,EPITACIOLÂNDIA,-68.7448680666749,-11.0282398279564
ACRE,FEIJÓ,-70.3539836082165,-8.1602475300000
ACRE,JORDÃO,-71.9508751248365,-9.1933578598285
ACRE,MÂNCIO LIMA,-72.9165010261308,-7.5932225938584
ACRE,MANOEL URBANO,-69.2599445775075,-8.8363177368917
ACRE,MARECHAL THAUMATURGO,-72.7902659086983,-8.9535911231537
ACRE,PLÁCIDO DE CASTRO,-67.1882600861516,-10.3351332827427
ACRE,PORTO WALTER,-72.7423339648033,-8.2666663628275
ACRE,RIO BRANCO,-67.8105287004235,-9.9782987527250
ACRE,RODRIGUES ALVES,-72.6478549141997,-7.7336020337232
ACRE,SANTA ROSA DO PURUS,-70.4864968937616,-9.4434065374119
ACRE,SENADOR GUIOMARD,-67.7431723600051,-10.1481735861989
ACRE,SENA MADUREIRA,-68.6556840616920,-9.0653395050000
ACRE,TARAUACÁ,-70.7555010628937,-8.1556685917656
ACRE,XAPURI,-68.5062948050463,-10.6520719403355
ACRE,PORTO ACRE,-67.5405900835194,-9.6008582311879
AMAZONAS,ALVARÃES,-64.8135346775686,-3.2165837690664
AMAZONAS,AMATURÁ,-68.2096146409404,-3.3668051875056
AMAZONAS,ANAMÃ,-61.4059034797501,-3.5763704268903
AMAZONAS,ANORI,-61.6589553828779,-3.7453855861189
AMAZONAS,APUÍ,-59.8856661047188,-7.1978701516076
AMAZONAS,ATALAIA DO NORTE,-70.1879892845226,-4.3661574897160
AMAZONAS,AUTAZES,-59.1335670918168,-3.5786636417713
AMAZONAS,BARCELOS,-62.9256696581026,-0.9728010525322
AMAZONAS,BARREIRINHA,-57.0677504898938,-2.7981498369298
AMAZONAS,BENJAMIN CONSTANT,-70.0273484332765,-4.3749890186039
AMAZONAS,BERURI,-61.3715708916659,-3.8945134098181
AMAZONAS,BOA VISTA DO RAMOS,-57.5877073464737,-2.9717265315894
AMAZONAS,BOCA DO ACRE,-67.3995777566805,-8.7512431960938
AMAZONAS,BORBA,-59.5945590194969,-4.3906198914727
AMAZONAS,CAAPIRANGA,-61.2113341331817,-3.3300933919416
AMAZONAS,CANUTAMA,-64.3942308189288,-6.5291060758261
AMAZONAS,CARAUARI,-66.8966352816837,-4.8816659042041
AMAZONAS,CAREIRO,-60.3638098437089,-3.8224472700460
AMAZONAS,CAREIRO DA VÁRZEA,-59.8263140608339,-3.1973965948696
AMAZONAS,COARI,-63.1421839840562,-4.0842191587759
AMAZONAS,CODAJÁS,-62.0634296604883,-3.8430459327389
AMAZONAS,EIRUNEPÉ,-69.8662902624416,-6.6673525668518
AMAZONAS,ENVIRA,-70.0304125429825,-7.4398175439684
AMAZONAS,FONTE BOA,-66.0965029898347,-2.5122706845478
AMAZONAS,GUAJARÁ,-72.5824305383396,-7.5477744148336
AMAZONAS,HUMAITÁ,-63.0266980219283,-7.5122249506114
AMAZONAS,IPIXUNA,-71.6944180603084,-7.0509801144372
AMAZONAS,IRANDUBA,-60.1933881661307,-3.2810538776069
AMAZONAS,ITACOATIARA,-58.4401754367571,-3.1403788039164
AMAZONAS,ITAMARATI,-68.2479174359782,-6.4377993486192
AMAZONAS,ITAPIRANGA,-58.0345458839662,-2.7418427523288
AMAZONAS,JAPURÁ,-66.9969034946413,-1.8808448587030
AMAZONAS,JURUÁ,-66.0630419255434,-3.4748895988907
AMAZONAS,JUTAÍ,-66.7713275466878,-2.7446464468579
AMAZONAS,LÁBREA,-64.7947730275200,-7.2619465533271
AMAZONAS,MANACAPURU,-60.6205894458706,-3.2982780354676
AMAZONAS,MANAQUIRI,-60.4588813063745,-3.4290796693526
AMAZONAS,MANAUS,-60.0233351810610,-3.1346914912020
AMAZONAS,MANICORÉ,-61.2992484088508,-5.8132052611881
AMAZONAS,MARAÃ,-65.5742837031641,-1.8664368773013
AMAZONAS,MAUÉS,-57.7150343867525,-3.3864279262111
AMAZONAS,NHAMUNDÁ,-56.7167699133376,-2.1889837668969
AMAZONAS,NOVA OLINDA DO NORTE,-59.0930740260433,-3.8875928319114
AMAZONAS,NOVO AIRÃO,-60.9488107078290,-2.6234324590276
AMAZONAS,NOVO ARIPUANÃ,-60.3770456690009,-5.1226693141962
AMAZONAS,PARINTINS,-56.7362921451951,-2.6270525858372
AMAZONAS,PAUINI,-67.0020974885282,-7.7140436443222
AMAZONAS,PRESIDENTE FIGUEIREDO,-60.0256468344675,-2.0584290852330
AMAZONAS,RIO PRETO DA EVA,-59.7047380941990,-2.6933015416451
AMAZONAS,SANTA ISABEL DO RIO NEGRO,-65.0200226395120,-0.4166948318819
AMAZONAS,SANTO ANTÔNIO DO IÇÁ,-67.9464851438841,-3.1074863091815
AMAZONAS,SÃO GABRIEL DA CACHOEIRA,-67.0836428963463,-0.1364627881165
AMAZONAS,SÃO PAULO DE OLIVENÇA,-68.9448534881358,-3.4665096234913
AMAZONAS,SÃO SEBASTIÃO DO UATUMÃ,-57.8703463558346,-2.5701525796779
AMAZONAS,SILVES,-58.2148008608269,-2.8364274296658
AMAZONAS,TABATINGA,-69.9462443752272,-4.2318836756467
AMAZONAS,TAPAUÁ,-63.1870948671802,-5.6242235177879
AMAZONAS,TEFÉ,-64.7084196633027,-3.3483724939415
AMAZONAS,TONANTINS,-67.7764822806952,-2.8610912498354
AMAZONAS,UARINI,-65.1553456401554,-2.9836092426921
AMAZONAS,URUCARÁ,-57.7598281745956,-2.5366116718404
AMAZONAS,URUCURITUBA,-58.1596410413098,-3.1346331156473
RORAIMA,AMAJARI,-61.4205901726631,3.6521184454459
RORAIMA,ALTO ALEGRE,-61.3140223901178,2.9938229476548
RORAIMA,BOA VISTA,-60.6705326729651,2.8166819191044
RORAIMA,BONFIM,-59.8780066289099,3.3502886191103
RORAIMA,CANTÁ,-60.6020628476112,2.6076663984165
RORAIMA,CARACARAÍ,-61.1491768701300,1.8038712472976
RORAIMA,CAROEBE,-59.6948100736757,0.8726745071866
RORAIMA,IRACEMA,-61.0522585850197,2.1682147652039
RORAIMA,MUCAJAÍ,-60.9115185306216,2.4797722350534
RORAIMA,NORMANDIA,-59.6352062835683,3.8829782853018
RORAIMA,PACARAIMA,-61.1473063471493,4.4752593402123
RORAIMA,RORAINÓPOLIS,-60.4250604939819,0.9371953935976
RORAIMA,SÃO JOÃO DA BALIZA,-59.9060443451544,0.9471574274667
RORAIMA,SÃO LUIZ,-60.0282667741903,1.0181116273913
RORAIMA,UIRAMUTÃ,-60.1957161480420,4.5854403875426
PARÁ,ABAETETUBA,-48.8844038207231,-1.7234698628459
PARÁ,ABEL FIGUEIREDO,-48.3967621257945,-4.9513908955313
PARÁ,ACARÁ,-48.2004564317501,-1.9634365000000
PARÁ,AFUÁ,-50.3914275892332,-0.1591716937798
PARÁ,ÁGUA AZUL DO NORTE,-50.4852745072531,-6.8049488674054
PARÁ,ALENQUER,-54.7408623501896,-1.9513975050000
PARÁ,ALMEIRIM,-52.5768350868127,-1.5273388027648
PARÁ,ALTAMIRA,-52.2143763052078,-3.2056595100000
PARÁ,ANAJÁS,-49.9450010405440,-0.9844513940087
PARÁ,ANANINDEUA,-48.3720666541680,-1.3687135682695
PARÁ,ANAPU,-51.2016217984581,-3.4761046350687
PARÁ,AUGUSTO CORRÊA,-46.6416457856711,-1.0229210100000
PARÁ,AURORA DO PARÁ,-47.5561746036128,-2.1293760131944
PARÁ,AVEIRO,-55.3307343898178,-3.6055952592839
PARÁ,BAGRE,-50.2219869206135,-1.8898080603617
PARÁ,BAIÃO,-49.6727533733253,-2.7919618613614
PARÁ,BANNACH,-50.4060471215195,-7.3510721924244
PARÁ,BARCARENA,-48.6270728925156,-1.5057670050000
PARÁ,BELÉM,-48.4878256874876,-1.4598450000000
PARÁ,BELTERRA,-54.9426747393262,-2.6490201694686
PARÁ,BENEVIDES,-48.2418364505703,-1.3614375150000
PARÁ,BOM JESUS DO TOCANTINS,-48.5990399590615,-5.0473627043203
PARÁ,BONITO,-47.3058918168639,-1.3674743568725
PARÁ,BRAGANÇA,-46.7657542136640,-1.0535239562056
PARÁ,BRASIL NOVO,-52.5434411922788,-3.2978037040084
PARÁ,BREJO GRANDE DO ARAGUAIA,-48.4057604223874,-5.7072961538361
PARÁ,BREU BRANCO,-49.5698796832857,-3.7781354128787
PARÁ,BREVES,-50.4808947990195,-1.6907365000000
PARÁ,BUJARU,-48.0358750143960,-1.5139914623006
PARÁ,CACHOEIRA DO PIRIÁ,-46.5473914166255,-1.7528970049312
PARÁ,CACHOEIRA DO ARARI,-48.9606675773871,-1.0087862656393
PARÁ,CAMETÁ,-49.4978301689970,-2.2468384800000
PARÁ,CANAÃ DOS CARAJÁS,-49.8489584319153,-6.5321966156294
PARÁ,CAPANEMA,-47.1751261231344,-1.1924419950000
PARÁ,CAPITÃO POÇO,-47.0628253774009,-1.7461872932375
PARÁ,CASTANHAL,-47.9266431419442,-1.2957568050453
PARÁ,CHAVES,-49.9893186050714,-0.1624372901219
PARÁ,COLARES,-48.2887284319494,-0.9320912439577
PARÁ,CONCEIÇÃO DO ARAGUAIA,-49.2645008124957,-8.2648635300000
PARÁ,CONCÓRDIA DO PARÁ,-47.9498869390047,-1.9845214627728
PARÁ,CUMARU DO NORTE,-50.7715783775131,-7.8111065368993
PARÁ,CURIONÓPOLIS,-49.6022142249504,-6.0968199522067
PARÁ,CURRALINHO,-49.7915228470854,-1.8094234196669
PARÁ,CURUÁ,-55.1196786087308,-1.8899287043055
PARÁ,CURUÇÁ,-47.8512650859352,-0.7324955100000
PARÁ,DOM ELISEU,-47.5559148859934,-4.2907777200000
PARÁ,ELDORADO DOS CARAJÁS,-49.3739519421522,-6.1035251610714
PARÁ,FARO,-56.7457530173070,-2.1729752419498
PARÁ,FLORESTA DO ARAGUAIA,-49.6975784122373,-7.5587008723701
PARÁ,GARRAFÃO DO NORTE,-47.0450460172973,-1.9316970431067
PARÁ,GOIANÉSIA DO PARÁ,-49.1010449237426,-3.8424680000000
PARÁ,GURUPÁ,-51.6436957233941,-1.4049180000000
PARÁ,IGARAPÉ-AÇU,-47.6223754920271,-1.1243220000000
PARÁ,IGARAPÉ-MIRI,-48.9622994689466,-1.9831160000000
PARÁ,INHANGAPI,-47.9133927465885,-1.4265819809103
PARÁ,IPIXUNA DO PARÁ,-47.4997175887983,-2.5575285000000
PARÁ,IRITUIA,-47.4407556128483,-1.7714749950000
PARÁ,ITAITUBA,-55.9900488572777,-4.2637294800000
PARÁ,ITUPIRANGA,-49.3244258612861,-5.1288370263609
PARÁ,JACAREACANGA,-57.7663398583794,-6.2235517313865
PARÁ,JACUNDÁ,-49.1127815625675,-4.4484054750000
PARÁ,JURUTI,-56.0949976884001,-2.1552529950000
PARÁ,LIMOEIRO DO AJURU,-49.3815339012019,-1.8919485000000
PARÁ,MÃE DO RIO,-47.5522901794773,-2.0477074407908
PARÁ,MAGALHÃES BARATA,-47.5991818964912,-0.7958501560212
PARÁ,MARABÁ,-49.1420253334067,-5.3526057631303
PARÁ,MARACANÃ,-47.4552679594076,-0.7624194599812
PARÁ,MARAPANIM,-47.7025487537677,-0.7121509963478
PARÁ,MARITUBA,-48.3405358777830,-1.3464172655758
PARÁ,MEDICILÂNDIA,-52.8883453507243,-3.4454174121869
PARÁ,MELGAÇO,-50.7174646976964,-1.8034466986410
PARÁ,MOCAJUBA,-49.5090234612729,-2.5828729732715
PARÁ,MOJU,-48.7671991273719,-1.8858890000000
PARÁ,MONTE ALEGRE,-54.0733747256360,-2.0033280000000
PARÁ,MUANÁ,-49.2168324424737,-1.5300262083549
PARÁ,NOVA ESPERANÇA DO PIRIÁ,-46.9620928836736,-2.2676259890313
PARÁ,NOVA IPIXUNA,-49.0798869380164,-4.9230863070265
PARÁ,NOVA TIMBOTEUA,-47.3932022764599,-1.2041436474669
PARÁ,NOVO PROGRESSO,-55.4198701179784,-7.0348359132881
PARÁ,NOVO REPARTIMENTO,-49.9486382443426,-4.2481485000000
PARÁ,ÓBIDOS,-55.5163235097126,-1.9092354958812
PARÁ,OEIRAS DO PARÁ,-49.8551061087735,-2.0047340000000
PARÁ,ORIXIMINÁ,-55.8627995152359,-1.7637535000000
PARÁ,OURÉM,-47.1176193628501,-1.5489471423024
PARÁ,OURILÂNDIA DO NORTE,-51.0908327746816,-6.7406170863774
PARÁ,PACAJÁ,-50.6348408304298,-3.8303057037573
PARÁ,PALESTINA DO PARÁ,-48.3217937261637,-5.7499341062261
PARÁ,PARAGOMINAS,-47.3569615610519,-2.9941905000000
PARÁ,PARAUAPEBAS,-49.9007806342970,-6.0727298876318
PARÁ,PAU D'ARCO,-50.0482755318998,-7.8367944039736
PARÁ,PEIXE-BOI,-47.3179270215591,-1.1895692407565
PARÁ,PIÇARRA,-48.8684006672187,-6.4536762345579
PARÁ,PLACAS,-54.2169681312654,-3.8673155621354
PARÁ,PONTA DE PEDRAS,-48.8717855600433,-1.3965999975235
PARÁ,PORTEL,-50.8224904422110,-1.9364510000000
PARÁ,PORTO DE MOZ,-52.2424769190201,-1.7460900888089
PARÁ,PRAINHA,-53.4818139407895,-1.8056945000000
PARÁ,PRIMAVERA,-47.1172512589126,-0.9401115159306
PARÁ,QUATIPURU,-47.0067869935760,-0.9001158537393
PARÁ,REDENÇÃO,-50.0296418255093,-8.0276045000000
PARÁ,RIO MARIA,-50.0464108775224,-7.3111152446882
PARÁ,RONDON DO PARÁ,-48.0699737493982,-4.7778217270355
PARÁ,RURÓPOLIS,-54.9058622598691,-4.0990653900000
PARÁ,SALINÓPOLIS,-47.3531202631536,-0.6236380000000
PARÁ,SALVATERRA,-48.5131865994469,-0.7545259743530
PARÁ,SANTA BÁRBARA DO PARÁ,-48.2977406497887,-1.2294394669924
PARÁ,SANTA CRUZ DO ARARI,-49.1716155661252,-0.6599741255993
PARÁ,SANTA ISABEL DO PARÁ,-48.1630599409531,-1.2973959012914
PARÁ,SANTA LUZIA DO PARÁ,-46.9061692026983,-1.5188278913875
PARÁ,SANTA MARIA DAS BARREIRAS,-49.7193518572257,-8.8705505396929
PARÁ,SANTA MARIA DO PARÁ,-47.5746954138091,-1.3478664592967
PARÁ,SANTANA DO ARAGUAIA,-50.3448043211290,-9.3294245250000
PARÁ,SANTARÉM,-54.7185701672711,-2.4362133300000
PARÁ,SANTARÉM NOVO,-47.4009247448680,-0.9287195357832
PARÁ,SANTO ANTÔNIO DO TAUÁ,-48.1324330748457,-1.1516925000000
PARÁ,SÃO CAETANO DE ODIVELAS,-48.0258054980831,-0.7466177599949
PARÁ,SÃO DOMINGOS DO ARAGUAIA,-48.7203734107844,-5.5498410000000
PARÁ,SÃO DOMINGOS DO CAPIM,-47.7747845692257,-1.6758145000000
PARÁ,SÃO FÉLIX DO XINGU,-51.9937825239643,-6.6424832783408
PARÁ,SÃO FRANCISCO DO PARÁ,-47.7905146107051,-1.1701887846770
PARÁ,SÃO GERALDO DO ARAGUAIA,-48.5557124861926,-6.3989579700000
PARÁ,SÃO JOÃO DA PONTA,-47.9207241656462,-0.8510021452696
PARÁ,SÃO JOÃO DE PIRABAS,-47.1726742979205,-0.7664425315154
PARÁ,SÃO JOÃO DO ARAGUAIA,-48.7886334020461,-5.3590027244164
PARÁ,SÃO MIGUEL DO GUAMÁ,-47.4824089444892,-1.6171359144905
PARÁ,SÃO SEBASTIÃO DA BOA VISTA,-49.5323121746161,-1.7188505000000
PARÁ,SAPUCAIA,-49.7035807118843,-6.9428571125738
PARÁ,SENADOR JOSÉ PORFÍRIO,-51.9530564180171,-2.5948504183235
PARÁ,SOURE,-48.5160126622773,-0.7259255000000
PARÁ,TAILÂNDIA,-48.9512816295758,-2.9370795000000
PARÁ,TERRA ALTA,-47.9078083483744,-1.0348266636163
PARÁ,TERRA SANTA,-56.4909047722432,-2.1081144737390
PARÁ,TOMÉ-AÇU,-48.1468965865720,-2.4193668552673
PARÁ,TRACUATEUA,-46.8994783371171,-1.0687840585684
PARÁ,TRAIRÃO,-55.9961700349273,-4.6998191496973
PARÁ,TUCUMÃ,-51.1395392466358,-6.7499720073823
PARÁ,TUCURUÍ,-49.6671843672248,-3.7668890843116
PARÁ,ULIANÓPOLIS,-47.5031447549992,-3.7571930100000
PARÁ,URUARÁ,-53.7370310504594,-3.7065285000000
PARÁ,VIGIA,-48.1414985852069,-0.8555325736678
PARÁ,VISEU,-46.1387652161496,-1.2032785266773
PARÁ,VITÓRIA DO XINGU,-52.0112603538154,-2.8837657102288
PARÁ,XINGUARA,-49.9427005843752,-7.1015128271460
AMAPÁ,SERRA DO NAVIO,-52.0035384352918,0.8978410409719
AMAPÁ,AMAPÁ,-50.7932144702699,2.0539212446821
AMAPÁ,PEDRA BRANCA DO AMAPARÍ,-51.9465942732743,0.7768828605639
AMAPÁ,CALÇOENE,-50.9447727342665,2.4965590445670
AMAPÁ,CUTIAS,-50.8016260298776,0.9710780554172
AMAPÁ,FERREIRA GOMES,-51.1874290460046,0.8539773931430
AMAPÁ,ITAUBAL,-50.7001794374183,0.6006532883046
AMAPÁ,LARANJAL DO JARI,-52.5390207369393,-0.8556645000000
AMAPÁ,MACAPÁ,-51.0574054570360,0.0389510100000
AMAPÁ,MAZAGÃO,-51.2860768561013,-0.1243963288211
AMAPÁ,OIAPOQUE,-51.8305525552731,3.8511307325593
AMAPÁ,PORTO GRANDE,-51.4144488229915,0.7125547018243
AMAPÁ,PRACUÚBA,-50.7842537212883,1.7425084870783
AMAPÁ,SANTANA,-51.1728464650687,-0.0383734790957
AMAPÁ,TARTARUGALZINHO,-50.9127861523142,1.5098482403111
AMAPÁ,VITÓRIA DO JARI,-52.4196147795718,-0.9189770885428
TOCANTINS,ABREULÂNDIA,-49.1624375554797,-9.6217907119984
TOCANTINS,AGUIARNÓPOLIS,-47.4704565879450,-6.5471708206181
TOCANTINS,ALIANÇA DO TOCANTINS,-48.9412400221409,-11.3037430465089
TOCANTINS,ALMAS,-47.1741716842358,-11.5745234694478
TOCANTINS,ALVORADA,-49.1268114067300,-12.4788153208227
TOCANTINS,ANANÁS,-48.0797646061948,-6.3628181541001
TOCANTINS,ANGICO,-47.8620778391735,-6.3877527497248
TOCANTINS,APARECIDA DO RIO NEGRO,-47.9766700113511,-9.9558777145605
TOCANTINS,ARAGOMINAS,-48.5234301922917,-7.1643492714437
TOCANTINS,ARAGUACEMA,-49.5618126396073,-8.8018025441112
TOCANTINS,ARAGUAÇU,-49.8286124432782,-12.9255837118616
TOCANTINS,ARAGUAÍNA,-48.2087052518558,-7.1913289396550
TOCANTINS,ARAGUANÃ,-48.6437495469431,-6.5822494200292
TOCANTINS,ARAGUATINS,-48.1235073430294,-5.6505864730000
TOCANTINS,ARAPOEMA,-49.0756373852721,-7.6525697354190
TOCANTINS,ARRAIAS,-46.9461070585534,-12.9344198592593
TOCANTINS,AUGUSTINÓPOLIS,-47.8809567910047,-5.4654142958965
TOCANTINS,AURORA DO TOCANTINS,-46.4070829808607,-12.7084898610615
TOCANTINS,AXIXÁ DO TOCANTINS,-47.7741560325221,-5.6243090659275
TOCANTINS,BABAÇULÂNDIA,-47.7588161270324,-7.2018645320615
TOCANTINS,BANDEIRANTES DO TOCANTINS,-48.5783806048644,-7.7648591412533
TOCANTINS,BARRA DO OURO,-47.6871349692244,-7.6917665986569
TOCANTINS,BARROLÂNDIA,-48.7314605907218,-9.8316533645334
TOCANTINS,BERNARDO SAYÃO,-48.8990543467276,-7.8685124833128
TOCANTINS,BOM JESUS DO TOCANTINS,-48.1663804935405,-8.9633480128552
TOCANTINS,BRASILÂNDIA DO TOCANTINS,-48.4853744191240,-8.3848893510780
TOCANTINS,BREJINHO DE NAZARÉ,-48.5586602281507,-11.0108050561865
TOCANTINS,BURITI DO TOCANTINS,-48.2232501280750,-5.3135388563892
TOCANTINS,CACHOEIRINHA,-47.9141977785590,-6.1132416465047
TOCANTINS,CAMPOS LINDOS,-46.8019743467067,-7.9716813941373
TOCANTINS,CARIRI DO TOCANTINS,-49.1710407289889,-11.8889974638744
TOCANTINS,CARMOLÂNDIA,-48.3959599306274,-7.0314787778611
TOCANTINS,CARRASCO BONITO,-48.0306334265692,-5.3226613548581
TOCANTINS,CASEARA,-49.9486922677787,-9.2674062189035
TOCANTINS,CENTENÁRIO,-47.3383985145873,-8.9584636390938
TOCANTINS,CHAPADA DE AREIA,-49.1831078580314,-10.1419885833334
TOCANTINS,CHAPADA DA NATIVIDADE,-47.7539048918565,-11.6242678313621
TOCANTINS,COLINAS DO TOCANTINS,-48.4815945437489,-8.0546246755000
TOCANTINS,COMBINADO,-46.5520723402661,-12.8186076720311
TOCANTINS,CONCEIÇÃO DO TOCANTINS,-47.2928688108070,-12.2172777669654
TOCANTINS,COUTO MAGALHÃES,-49.1765715708530,-8.3551183696352
TOCANTINS,CRISTALÂNDIA,-49.1863002912612,-10.5907246371177
TOCANTINS,CRIXÁS DO TOCANTINS,-48.9155138256477,-11.1042742936043
TOCANTINS,DARCINÓPOLIS,-47.7521611102799,-6.7123510014818
TOCANTINS,DIANÓPOLIS,-46.8204090669435,-11.6252318780650
TOCANTINS,DIVINÓPOLIS DO TOCANTINS,-49.2054131873503,-9.7953011402295
TOCANTINS,DOIS IRMÃOS DO TOCANTINS,-49.0673386442723,-9.2612967097971
TOCANTINS,DUERÉ,-49.2658759161628,-11.3412854167798
TOCANTINS,ESPERANTINA,-48.5441476004124,-5.3666080594045
TOCANTINS,FÁTIMA,-48.8989826586808,-10.7525087280848
TOCANTINS,FIGUEIRÓPOLIS,-49.1738467307434,-12.1367799832225
TOCANTINS,FILADÉLFIA,-47.4849641415320,-7.3376119059308
TOCANTINS,FORMOSO DO ARAGUAIA,-49.5268603629125,-11.8051419686495
TOCANTINS,FORTALEZA DO TABOCÃO,-48.5174264210488,-9.0589653011498
TOCANTINS,GOIANORTE,-48.9368901923611,-8.7705208048294
TOCANTINS,GOIATINS,-47.3154354891583,-7.7091723901957
TOCANTINS,GUARAÍ,-48.5086406064702,-8.8361656575044
TOCANTINS,GURUPI,-49.0714774689303,-11.7297723228600
TOCANTINS,IPUEIRAS,-48.4519262288947,-11.2462886215917
TOCANTINS,ITACAJÁ,-47.7681124026780,-8.3909805523186
TOCANTINS,ITAGUATINS,-47.4799359489833,-5.7753850884022
TOCANTINS,ITAPIRATINS,-48.1111996094691,-8.3843295934430
TOCANTINS,ITAPORÃ DO TOCANTINS,-48.6932637032248,-8.5688286115605
TOCANTINS,JAÚ DO TOCANTINS,-48.5946082927248,-12.6529263692706
TOCANTINS,JUARINA,-49.0986431854272,-8.1174239676068
TOCANTINS,LAGOA DA CONFUSÃO,-49.6200853391460,-10.7886955575897
TOCANTINS,LAGOA DO TOCANTINS,-47.5614466302738,-10.2968866969998
TOCANTINS,LAJEADO,-48.3585039506901,-9.7446824357356
TOCANTINS,LAVANDEIRA,-46.5066757157435,-12.7916587876518
TOCANTINS,LIZARDA,-46.6751654558461,-9.5945702878097
TOCANTINS,LUZINÓPOLIS,-47.8568280414140,-6.1939896602358
TOCANTINS,MARIANÓPOLIS DO TOCANTINS,-49.6510339944378,-9.7988803593506
TOCANTINS,MATEIROS,-46.4124657430920,-10.5444288460778
TOCANTINS,MAURILÂNDIA DO TOCANTINS,-47.5048799601751,-5.9525664212105
TOCANTINS,MIRACEMA DO TOCANTINS,-48.3879913115193,-9.5683460776465
TOCANTINS,MIRANORTE,-48.5926319369139,-9.5174047310931
TOCANTINS,MONTE DO CARMO,-48.1104200299112,-10.7635421946238
TOCANTINS,MONTE SANTO DO TOCANTINS,-48.9908906033935,-10.0055914317940
TOCANTINS,PALMEIRAS DO TOCANTINS,-47.5586835262825,-6.6118623345617
TOCANTINS,MURICILÂNDIA,-48.6067452770067,-7.1385192851603
TOCANTINS,NATIVIDADE,-47.7272575338232,-11.7053573825042
TOCANTINS,NAZARÉ,-47.6669771825263,-6.3725579692856
TOCANTINS,NOVA OLINDA,-48.4248067900164,-7.6333149106925
TOCANTINS,NOVA ROSALÂNDIA,-48.9061807245023,-10.5668711393323
TOCANTINS,NOVO ACORDO,-47.6681483922167,-9.9684864657017
TOCANTINS,NOVO ALEGRE,-46.5772973536675,-12.9099386744081
TOCANTINS,NOVO JARDIM,-46.6307872958899,-11.8158750501490
TOCANTINS,OLIVEIRA DE FÁTIMA,-48.9074015689032,-10.7083627090618
TOCANTINS,PALMEIRANTE,-47.9342497089842,-7.8575613761451
TOCANTINS,PALMEIRÓPOLIS,-48.4134139552316,-13.0398884336692
TOCANTINS,PARAÍSO DO TOCANTINS,-48.8866300840169,-10.1712207549999
TOCANTINS,PARANÃ,-47.8840837284426,-12.6204814887183
TOCANTINS,PAU D'ARCO,-49.3633064810091,-7.5399983557000
TOCANTINS,PEDRO AFONSO,-48.1775561127386,-8.9644495924229
TOCANTINS,PEIXE,-48.5378106263360,-12.0297738308530
TOCANTINS,PEQUIZEIRO,-48.9351798669158,-8.5933406544485
TOCANTINS,COLMÉIA,-48.7570665856948,-8.7293718068186
TOCANTINS,PINDORAMA DO TOCANTINS,-47.5756877172877,-11.1382025846808
TOCANTINS,PIRAQUÊ,-48.2937073910932,-6.7697770334074
TOCANTINS,PIUM,-49.1666580115747,-10.4409311179305
TOCANTINS,PONTE ALTA DO BOM JESUS,-46.4695867923952,-12.0878129084344
TOCANTINS,PONTE ALTA DO TOCANTINS,-47.5411803583019,-10.7406728486815
TOCANTINS,PORTO ALEGRE DO TOCANTINS,-47.0474256004295,-11.6072590990885
TOCANTINS,PORTO NACIONAL,-48.4121534584309,-10.7085699170000
TOCANTINS,PRAIA NORTE,-47.8147317333423,-5.3967128773783
TOCANTINS,PRESIDENTE KENNEDY,-48.5043306701090,-8.5299608276192
TOCANTINS,PUGMIL,-48.8942204487831,-10.4243071562468
TOCANTINS,RECURSOLÂNDIA,-47.2380411950208,-8.7353604538801
TOCANTINS,RIACHINHO,-48.1410455020380,-6.4422113876974
TOCANTINS,RIO DA CONCEIÇÃO,-46.8803997045722,-11.4049400238990
TOCANTINS,RIO DOS BOIS,-48.5330479716014,-9.3437422386879
TOCANTINS,RIO SONO,-47.8999416391395,-9.3477893341161
TOCANTINS,SAMPAIO,-47.8757924571994,-5.3492956164967
TOCANTINS,SANDOLÂNDIA,-49.9333881543012,-12.5416001674833
TOCANTINS,SANTA FÉ DO ARAGUAIA,-48.6939418034376,-7.1499363850312
TOCANTINS,SANTA MARIA DO TOCANTINS,-47.7452704192246,-8.7749764492665
TOCANTINS,SANTA RITA DO TOCANTINS,-48.9092940073590,-10.8664553694029
TOCANTINS,SANTA ROSA DO TOCANTINS,-48.1199542217524,-11.4514039985494
TOCANTINS,SANTA TEREZA DO TOCANTINS,-47.8062883215081,-10.2823615278187
TOCANTINS,SANTA TEREZINHA DO TOCANTINS,-47.6842853630081,-6.4369976184443
TOCANTINS,SÃO BENTO DO TOCANTINS,-47.9193922870534,-6.0449992571924
TOCANTINS,SÃO FÉLIX DO TOCANTINS,-46.6549808310123,-10.1732858539628
TOCANTINS,SÃO MIGUEL DO TOCANTINS,-47.5730023393731,-5.5538195287943
TOCANTINS,SÃO SALVADOR DO TOCANTINS,-48.2320849916811,-12.7474334144954
TOCANTINS,SÃO SEBASTIÃO DO TOCANTINS,-48.2038341490288,-5.2589614537351
TOCANTINS,SÃO VALÉRIO,-48.2329484333802,-11.9730674594797
TOCANTINS,SILVANÓPOLIS,-48.1798241355321,-11.1498613085628
TOCANTINS,SÍTIO NOVO DO TOCANTINS,-47.6374226504604,-5.6047268566531
TOCANTINS,SUCUPIRA,-48.9111262826871,-11.9862215108600
TOCANTINS,TAGUATINGA,-46.4387317008831,-12.3961417386813
TOCANTINS,TAIPAS DO TOCANTINS,-46.9845717959323,-12.1928372090542
TOCANTINS,TALISMÃ,-49.0911184339334,-12.7875384068603
TOCANTINS,PALMAS,-48.3510437082462,-10.1632533267928
TOCANTINS,TOCANTÍNIA,-48.3758796714267,-9.5581477340057
TOCANTINS,TOCANTINÓPOLIS,-47.4274129286927,-6.3256343760280
TOCANTINS,TUPIRAMA,-48.2066848030641,-8.9805695494171
TOCANTINS,TUPIRATINS,-48.1229957408688,-8.3955299969580
TOCANTINS,WANDERLÂNDIA,-47.9562677260283,-6.8501255166885
TOCANTINS,XAMBIOÁ,-48.5316010728170,-6.4118850201798
MARANHÃO,AÇAILÂNDIA,-47.5066645931119,-4.9513770001625
MARANHÃO,AFONSO CUNHA,-43.3208690039685,-4.1350154768701
MARANHÃO,ÁGUA DOCE DO MARANHÃO,-42.1155512017213,-2.8402782791368
MARANHÃO,ALCÂNTARA,-44.4170125372846,-2.4032765250792
MARANHÃO,ALDEIAS ALTAS,-43.4687348529398,-4.6307794951521
MARANHÃO,ALTAMIRA DO MARANHÃO,-45.4646758311604,-4.1622692668532
MARANHÃO,ALTO ALEGRE DO MARANHÃO,-44.4482474945232,-4.2072270000000
MARANHÃO,ALTO ALEGRE DO PINDARÉ,-45.8420796161705,-3.6651703744533
MARANHÃO,ALTO PARNAÍBA,-45.9273440133384,-9.1083659321911
MARANHÃO,AMAPÁ DO MARANHÃO,-46.0091799003875,-1.6809214951218
MARANHÃO,AMARANTE DO MARANHÃO,-46.7506375454972,-5.5576620001821
MARANHÃO,ANAJATUBA,-44.6206700277629,-3.2575548421272
MARANHÃO,ANAPURUS,-43.1057925096893,-3.6670346623469
MARANHÃO,APICUM-AÇU,-45.0766520734486,-1.5305915777549
MARANHÃO,ARAGUANÃ,-45.6687944761006,-2.9491256232771
MARANHÃO,ARAIOSES,-41.8991394498654,-2.8892558464331
MARANHÃO,ARAME,-46.0136362778351,-4.8860815050000
MARANHÃO,ARARI,-44.7788346547106,-3.4591709701138
MARANHÃO,AXIXÁ,-44.0545858090773,-2.8377968371321
MARANHÃO,BACABAL,-44.7815559640891,-4.2315246297805
MARANHÃO,BACABEIRA,-44.3154229865671,-2.9858247787757
MARANHÃO,BACURI,-45.1373489396265,-1.7240463184732
MARANHÃO,BACURITUBA,-44.7357420061579,-2.7108719765206
MARANHÃO,BALSAS,-46.0389926733405,-7.5311699902455
MARANHÃO,BARÃO DE GRAJAÚ,-43.0264526994269,-6.7589552055805
MARANHÃO,BARRA DO CORDA,-45.2390110161110,-5.5083395000000
MARANHÃO,BARREIRINHAS,-42.8278025132041,-2.7500859487581
MARANHÃO,BELÁGUA,-43.5100616427410,-3.1567722275297
MARANHÃO,BELA VISTA DO MARANHÃO,-45.2482458781849,-3.7377332499083
MARANHÃO,BENEDITO LEITE,-44.5598567990095,-7.2187997953852
MARANHÃO,BEQUIMÃO,-44.7857301568673,-2.4620629950811
MARANHÃO,BERNARDO DO MEARIM,-44.7643231034878,-4.6302874907923
MARANHÃO,BOA VISTA DO GURUPI,-46.2987100525274,-1.7932961357988
MARANHÃO,BOM JARDIM,-45.6018893890511,-3.5441609778557
MARANHÃO,BOM JESUS DAS SELVAS,-46.8532412231489,-4.4899683531069
MARANHÃO,BOM LUGAR,-45.0311078563238,-4.3755096014642
MARANHÃO,BREJO,-42.7508478268196,-3.6791780000000
MARANHÃO,BREJO DE AREIA,-45.5820952717813,-4.3306298974950
MARANHÃO,BURITI,-42.9251061777803,-3.9455715000000
MARANHÃO,BURITI BRAVO,-43.8356215415106,-5.8352881321467
MARANHÃO,BURITICUPU,-46.4514953190510,-4.3259477263016
MARANHÃO,BURITIRANA,-47.0172250932177,-5.5889151417116
MARANHÃO,CACHOEIRA GRANDE,-44.0596850157832,-2.9319210390576
MARANHÃO,CAJAPIÓ,-44.6733771645862,-2.8828822031575
MARANHÃO,CAJARI,-45.0079653349663,-3.3238688309169
MARANHÃO,CAMPESTRE DO MARANHÃO,-47.3676328633342,-6.1647166458352
MARANHÃO,CÂNDIDO MENDES,-45.7372683655917,-1.4538891085280
MARANHÃO,CANTANHEDE,-44.3818161358390,-3.6283643118727
MARANHÃO,CAPINZAL DO NORTE,-44.3304362519955,-4.7212453887722
MARANHÃO,CAROLINA,-47.4700918028279,-7.3307830052391
MARANHÃO,CARUTAPERA,-46.0231508346050,-1.2006020000000
MARANHÃO,CAXIAS,-43.3585394285192,-4.8616749901596
MARANHÃO,CEDRAL,-44.5307895278055,-1.9979159255716
MARANHÃO,CENTRAL DO MARANHÃO,-44.8318437024986,-2.1913139076178
MARANHÃO,CENTRO DO GUILHERME,-46.0399601131872,-2.4569850818082
MARANHÃO,CENTRO NOVO DO MARANHÃO,-46.1284089549781,-2.1442916985584
MARANHÃO,CHAPADINHA,-43.3611207817520,-3.7400245200000
MARANHÃO,CIDELÂNDIA,-47.7842327756716,-5.1774210472116
MARANHÃO,CODÓ,-43.8860802350324,-4.4513375001462
MARANHÃO,COELHO NETO,-43.0140136155495,-4.2547375001398
MARANHÃO,COLINAS,-44.2497802305352,-6.0273655201973
MARANHÃO,CONCEIÇÃO DO LAGO-AÇU,-44.9030159051796,-3.8411184578558
MARANHÃO,COROATÁ,-44.1255992014644,-4.1289760000000
MARANHÃO,CURURUPU,-44.8677616169761,-1.8255207812193
MARANHÃO,DAVINÓPOLIS,-47.4049963875281,-5.5344562161064
MARANHÃO,DOM PEDRO,-44.4400099109689,-5.0384476351653
MARANHÃO,DUQUE BACELAR,-42.9441802036073,-4.1478190971136
MARANHÃO,ESPERANTINÓPOLIS,-44.8860686990188,-4.8703008974764
MARANHÃO,ESTREITO,-47.4478829861377,-6.5680849802147
MARANHÃO,FEIRA NOVA DO MARANHÃO,-46.6873552159638,-6.9631355406273
MARANHÃO,FERNANDO FALCÃO,-44.9107074022131,-6.1549784629160
MARANHÃO,FORMOSA DA SERRA NEGRA,-46.1863570068861,-6.4353041056139
MARANHÃO,FORTALEZA DOS NOGUEIRAS,-46.1855575419836,-6.9659260874923
MARANHÃO,FORTUNA,-44.1606284272259,-5.7362241324770
MARANHÃO,GODOFREDO VIANA,-45.7717548080523,-1.4098001867328
MARANHÃO,GONÇALVES DIAS,-44.3059065359375,-5.1439555694610
MARANHÃO,GOVERNADOR ARCHER,-44.2757565261253,-5.0253878239268
MARANHÃO,GOVERNADOR EDISON LOBÃO,-47.3689358390373,-5.7474117385125
MARANHÃO,GOVERNADOR EUGÊNIO BARROS,-44.2469626460204,-5.3224910015295
MARANHÃO,GOVERNADOR LUIZ ROCHA,-44.0708873355169,-5.4728646849178
MARANHÃO,GOVERNADOR NEWTON BELLO,-45.6745017970092,-3.4297047199036
MARANHÃO,GOVERNADOR NUNES FREIRE,-45.8814811327942,-2.1349623600000
MARANHÃO,GRAÇA ARANHA,-44.3357912599200,-5.4048212130546
MARANHÃO,GRAJAÚ,-46.1423956359934,-5.8185484313310
MARANHÃO,GUIMARÃES,-44.5977464563371,-2.1350771583845
MARANHÃO,HUMBERTO DE CAMPOS,-43.4650921443146,-2.5912239722608
MARANHÃO,ICATU,-44.0658484686400,-2.7748278630993
MARANHÃO,IGARAPÉ DO MEIO,-45.1833277021706,-3.6367085218654
MARANHÃO,IGARAPÉ GRANDE,-44.8674033458603,-4.6608538062375
MARANHÃO,IMPERATRIZ,-47.4798108057682,-5.5265240251811
MARANHÃO,ITAIPAVA DO GRAJAÚ,-45.7926825034690,-5.1445822617698
MARANHÃO,ITAPECURU MIRIM,-44.3542633904340,-3.3990454801118
MARANHÃO,ITINGA DO MARANHÃO,-47.5279099637574,-4.4550039984459
MARANHÃO,JATOBÁ,-44.2199147698158,-5.8196669367750
MARANHÃO,JENIPAPO DOS VIEIRAS,-45.6333791074203,-5.3694249264334
MARANHÃO,JOÃO LISBOA,-47.4050361497684,-5.4536629415592
MARANHÃO,JOSELÂNDIA,-44.6991525645005,-4.9726933289475
MARANHÃO,JUNCO DO MARANHÃO,-46.0707260732137,-1.8746095975028
MARANHÃO,LAGO DA PEDRA,-45.1258913559145,-4.5647445150000
MARANHÃO,LAGO DO JUNCO,-45.0513443921165,-4.6076432176837
MARANHÃO,LAGO VERDE,-44.9376352319942,-4.0387112952767
MARANHÃO,LAGOA DO MATO,-43.5275591165627,-6.0452772965708
MARANHÃO,LAGO DOS RODRIGUES,-44.9764423255877,-4.6123757769315
MARANHÃO,LAGOA GRANDE DO MARANHÃO,-45.3906142793613,-4.9931237371371
MARANHÃO,LAJEADO NOVO,-47.0324475171004,-6.1916092266669
MARANHÃO,LIMA CAMPOS,-44.4693403292236,-4.5170459872175
MARANHÃO,LORETO,-45.1392416375273,-7.0944541653822
MARANHÃO,LUÍS DOMINGUES,-45.8953319920784,-1.3254602443531
MARANHÃO,MAGALHÃES DE ALMEIDA,-42.2015066913751,-3.3966676742208
MARANHÃO,MARACAÇUMÉ,-45.9586390371679,-2.0561645495151
MARANHÃO,MARAJÁ DO SENA,-45.4572376525781,-4.6203133241241
MARANHÃO,MARANHÃOZINHO,-45.8556114548668,-2.2356169920760
MARANHÃO,MATA ROMA,-43.1203894235718,-3.6190455098937
MARANHÃO,MATINHA,-45.0364289401062,-3.0984000300000
MARANHÃO,MATÕES,-43.2012082829130,-5.5224650194341
MARANHÃO,MATÕES DO NORTE,-44.5502445069402,-3.6275187802167
MARANHÃO,MILAGRES DO MARANHÃO,-42.6107528325103,-3.5822066413981
MARANHÃO,MIRADOR,-44.3626097938789,-6.3775656953878
MARANHÃO,MIRANDA DO NORTE,-44.5842756917321,-3.5626447744298
MARANHÃO,MIRINZAL,-44.7857559864783,-2.0642241915911
MARANHÃO,MONÇÃO,-45.2475846706441,-3.4939324800000
MARANHÃO,MONTES ALTOS,-47.0704395080146,-5.8285625041642
MARANHÃO,MORROS,-44.0445445431756,-2.8614789530879
MARANHÃO,NINA RODRIGUES,-43.9044847603497,-3.4624642894470
MARANHÃO,NOVA COLINAS,-46.2593252229153,-7.1205660035625
MARANHÃO,NOVA IORQUE,-44.0486267271013,-6.7332033057916
MARANHÃO,NOVA OLINDA DO MARANHÃO,-45.7045360408348,-2.7998865440601
MARANHÃO,OLHO D'ÁGUA DAS CUNHÃS,-45.1195796205000,-4.1372759298054
MARANHÃO,OLINDA NOVA DO MARANHÃO,-45.0032353744727,-2.9974776154095
MARANHÃO,PAÇO DO LUMIAR,-44.0986923548404,-2.5280630000000
MARANHÃO,PALMEIRÂNDIA,-44.9044638923101,-2.6477742782639
MARANHÃO,PARAIBANO,-43.9857620488226,-6.4318254141389
MARANHÃO,PARNARAMA,-43.0904013534701,-5.6844671764059
MARANHÃO,PASSAGEM FRANCA,-43.7817452258620,-6.1739944255587
MARANHÃO,PASTOS BONS,-44.0886025133719,-6.6040277320640
MARANHÃO,PAULINO NEVES,-42.5454239809373,-2.7182059898271
MARANHÃO,PAULO RAMOS,-45.2399800047299,-4.4479567659364
MARANHÃO,PEDREIRAS,-44.6037348763271,-4.5693506880991
MARANHÃO,PEDRO DO ROSÁRIO,-45.3464537341415,-2.9681146726782
MARANHÃO,PENALVA,-45.1764616887688,-3.2932333177692
MARANHÃO,PERI MIRIM,-44.8502907000589,-2.5730546485061
MARANHÃO,PERITORÓ,-44.3258535239149,-4.3702251176571
MARANHÃO,PINDARÉ-MIRIM,-45.3468679178433,-3.6055005749139
MARANHÃO,PINHEIRO,-45.0839266012937,-2.5227405000000
MARANHÃO,PIO XII,-45.1699603886650,-3.8875875301278
MARANHÃO,PIRAPEMAS,-44.2282808838415,-3.7253290661168
MARANHÃO,POÇÃO DE PEDRAS,-44.9515514003151,-4.7500252112450
MARANHÃO,PORTO FRANCO,-47.3821649019193,-6.3541818639141
MARANHÃO,PORTO RICO DO MARANHÃO,-44.5837478895568,-1.8572232148441
MARANHÃO,PRESIDENTE DUTRA,-44.4929188624246,-5.2823742577588
MARANHÃO,PRESIDENTE JUSCELINO,-44.0767794214185,-2.9282292461492
MARANHÃO,PRESIDENTE MÉDICI,-45.8207086475539,-2.3836640465391
MARANHÃO,PRESIDENTE SARNEY,-45.3713022606449,-2.5955305599060
MARANHÃO,PRESIDENTE VARGAS,-44.0334018673342,-3.4020115222066
MARANHÃO,PRIMEIRA CRUZ,-43.4424433046987,-2.5105831719636
MARANHÃO,RAPOSA,-44.1025161642031,-2.4150749026287
MARANHÃO,RIACHÃO,-46.6233501429074,-7.3645650002402
MARANHÃO,RIBAMAR FIQUENE,-47.3834777870799,-5.9338228588186
MARANHÃO,ROSÁRIO,-44.2475185952615,-2.9415430350000
MARANHÃO,SAMBAÍBA,-45.3442031980139,-7.1383508974980
MARANHÃO,SANTA FILOMENA DO MARANHÃO,-44.5637140401312,-5.4997668067221
MARANHÃO,SANTA HELENA,-45.3051611932379,-2.2345325089268
MARANHÃO,SANTA INÊS,-45.3782724523024,-3.6585745200000
MARANHÃO,SANTA LUZIA,-45.6650117249372,-3.9683914650000
MARANHÃO,SANTA LUZIA DO PARUÁ,-45.7764615615901,-2.5461614748149
MARANHÃO,SANTA QUITÉRIA DO MARANHÃO,-42.5628730097352,-3.4984849951151
MARANHÃO,SANTA RITA,-44.3199480818757,-3.1341167656710
MARANHÃO,SANTANA DO MARANHÃO,-42.4007677571893,-3.1130683427817
MARANHÃO,SANTO AMARO DO MARANHÃO,-43.2552849422448,-2.5027211989687
MARANHÃO,SANTO ANTÔNIO DOS LOPES,-44.3614474338019,-4.8738195755970
MARANHÃO,SÃO BENEDITO DO RIO PRETO,-43.5299918701629,-3.3327660037303
MARANHÃO,SÃO BENTO,-44.8283451799242,-2.6970075000000
MARANHÃO,SÃO BERNARDO,-42.4230096609141,-3.3654365101107
MARANHÃO,SÃO DOMINGOS DO AZEITÃO,-44.6504239102536,-6.8044250097514
MARANHÃO,SÃO DOMINGOS DO MARANHÃO,-44.3928792568666,-5.5656420001824
MARANHÃO,SÃO FÉLIX DE BALSAS,-44.8114476614751,-7.0846851542498
MARANHÃO,SÃO FRANCISCO DO BREJÃO,-47.3911373985947,-5.1302007871663
MARANHÃO,SÃO FRANCISCO DO MARANHÃO,-42.8653217275577,-6.2527979166509
MARANHÃO,SÃO JOÃO BATISTA,-44.8117618530648,-2.9533329124581
MARANHÃO,SÃO JOÃO DO CARÚ,-46.2549254827263,-3.5608034068609
MARANHÃO,SÃO JOÃO DO PARAÍSO,-47.0506104204952,-6.4662222863640
MARANHÃO,SÃO JOÃO DO SOTER,-43.8181817951061,-5.1157392643700
MARANHÃO,SÃO JOÃO DOS PATOS,-43.7029101657958,-6.4982081521098
MARANHÃO,SÃO JOSÉ DE RIBAMAR,-44.0575481150532,-2.5558585200000
MARANHÃO,SÃO JOSÉ DOS BASÍLIOS,-44.5824465175581,-5.0486872451512
MARANHÃO,SÃO LUÍS,-44.2979185642444,-2.5318859850834
MARANHÃO,SÃO LUÍS GONZAGA DO MARANHÃO,-44.6627084964498,-4.3739184905659
MARANHÃO,SÃO MATEUS DO MARANHÃO,-44.4685628110946,-4.0345505101326
MARANHÃO,SÃO PEDRO DA ÁGUA BRANCA,-48.4236235936456,-5.0889109974074
MARANHÃO,SÃO PEDRO DOS CRENTES,-46.5325803473698,-6.8285556408383
MARANHÃO,SÃO RAIMUNDO DAS MANGABEIRAS,-45.4848314302202,-7.0269626571685
MARANHÃO,SÃO RAIMUNDO DO DOCA BEZERRA,-45.0841627902783,-5.1031818448972
MARANHÃO,SÃO ROBERTO,-44.9919011592934,-5.0173668823809
MARANHÃO,SÃO VICENTE FERRER,-44.8869045766146,-2.8907310643780
MARANHÃO,SATUBINHA,-45.2336295762481,-4.0357354948103
MARANHÃO,SENADOR ALEXANDRE COSTA,-44.0563015064170,-5.2610765443839
MARANHÃO,SENADOR LA ROCQUE,-47.2891914239822,-5.4418324951784
MARANHÃO,SERRANO DO MARANHÃO,-45.1146408497435,-1.8526455417275
MARANHÃO,SÍTIO NOVO,-46.6949833406808,-5.8706298913123
MARANHÃO,SUCUPIRA DO NORTE,-44.1886027051903,-6.4782844476204
MARANHÃO,SUCUPIRA DO RIACHÃO,-43.5458533208452,-6.4201084051265
MARANHÃO,TASSO FRAGOSO,-45.7441235175102,-8.4798310178669
MARANHÃO,TIMBIRAS,-43.9384339738391,-4.2538405050000
MARANHÃO,TIMON,-42.8337278988597,-5.1006811101294
MARANHÃO,TRIZIDELA DO VALE,-44.6106851966461,-4.5701268566100
MARANHÃO,TUFILÂNDIA,-45.6339164756818,-3.6764041183838
MARANHÃO,TUNTUM,-44.6490121516647,-5.2496555400000
MARANHÃO,TURIAÇU,-45.3691524172241,-1.6690220476817
MARANHÃO,TURILÂNDIA,-45.3067653119700,-2.2288335249505
MARANHÃO,TUTÓIA,-42.2768472076943,-2.7635501968887
MARANHÃO,URBANO SANTOS,-43.4042484723562,-3.2084094995859
MARANHÃO,VARGEM GRANDE,-43.9166644901652,-3.5418960001165
MARANHÃO,VIANA,-45.0013066952616,-3.2145625130663
MARANHÃO,VILA NOVA DOS MARTÍRIOS,-48.1389264826010,-5.1835115192043
MARANHÃO,VITÓRIA DO MEARIM,-44.8695722405589,-3.4820473645466
MARANHÃO,VITORINO FREIRE,-45.2441851431550,-4.2911865001410
MARANHÃO,ZÉ DOCA,-45.6576978606050,-3.2754805000000
PIAUÍ,ACAUÃ,-41.0836378172387,-8.2207866628776
PIAUÍ,AGRICOLÂNDIA,-42.6591831974356,-5.7955019354348
PIAUÍ,ÁGUA BRANCA,-42.6351308599585,-5.8932663379451
PIAUÍ,ALAGOINHA DO PIAUÍ,-40.9346348169192,-7.0081752801500
PIAUÍ,ALEGRETE DO PIAUÍ,-40.8578629896146,-7.2453494663005
PIAUÍ,ALTO LONGÁ,-42.2103219621610,-5.2509930113513
PIAUÍ,ALTOS,-42.4609480355568,-5.0365464343406
PIAUÍ,ALVORADA DO GURGUÉIA,-43.8630715789216,-8.4439590722839
PIAUÍ,AMARANTE,-42.8536928230327,-6.2466107721737
PIAUÍ,ANGICAL DO PIAUÍ,-42.7438657484282,-6.0872416921296
PIAUÍ,ANÍSIO DE ABREU,-43.0348533320546,-9.1749185309069
PIAUÍ,ANTÔNIO ALMEIDA,-44.1965353200183,-7.2193558340070
PIAUÍ,AROAZES,-41.7974533387940,-6.1128502562638
PIAUÍ,AROEIRAS DO ITAIM,-41.5632044182612,-7.2787454649722
PIAUÍ,ARRAIAL,-42.5365666246569,-6.6508270274781
PIAUÍ,ASSUNÇÃO DO PIAUÍ,-41.0508299964828,-5.8649144945276
PIAUÍ,AVELINO LOPES,-43.9415101417959,-10.1347450128483
PIAUÍ,BAIXA GRANDE DO RIBEIRO,-45.2128152925670,-7.8533519591855
PIAUÍ,BARRA D'ALCÂNTARA,-42.1050020825819,-6.5188730722939
PIAUÍ,BARRAS,-42.2953398573464,-4.2430933543437
PIAUÍ,BARREIRAS DO PIAUÍ,-45.4777877054503,-9.9212468267431
PIAUÍ,BARRO DURO,-42.5133778221163,-5.8123597078159
PIAUÍ,BATALHA,-42.0752187320310,-4.0204123357539
PIAUÍ,BELA VISTA DO PIAUÍ,-41.8713796439709,-7.9721853195719
PIAUÍ,BELÉM DO PIAUÍ,-40.9703021906942,-7.3701396155187
PIAUÍ,BENEDITINOS,-42.3706167024747,-5.4476028602404
PIAUÍ,BERTOLÍNIA,-43.9543877391026,-7.6286247631043
PIAUÍ,BETÂNIA DO PIAUÍ,-40.7966219288235,-8.1456655772958
PIAUÍ,BOA HORA,-42.1252957358755,-4.4090096058024
PIAUÍ,BOCAINA,-41.3223406826513,-6.9548423325956
PIAUÍ,BOM JESUS,-44.3605250848238,-9.0709489836737
PIAUÍ,BOM PRINCÍPIO DO PIAUÍ,-41.6452095701255,-3.1898586876054
PIAUÍ,BONFIM DO PIAUÍ,-42.8796630650943,-9.1665605392747
PIAUÍ,BOQUEIRÃO DO PIAUÍ,-42.1036271347473,-4.4858196316437
PIAUÍ,BRASILEIRA,-41.7892596435709,-4.1378291077452
PIAUÍ,BREJO DO PIAUÍ,-42.8303018098246,-8.2070647663721
PIAUÍ,BURITI DOS LOPES,-41.8699088471231,-3.1727213350546
PIAUÍ,BURITI DOS MONTES,-41.1018513936703,-5.3120667825685
PIAUÍ,CABECEIRAS DO PIAUÍ,-42.3083160653123,-4.4713312938014
PIAUÍ,CAJAZEIRAS DO PIAUÍ,-42.3967272946014,-6.7941841175421
PIAUÍ,CAJUEIRO DA PRAIA,-41.3471503621608,-2.9292271717718
PIAUÍ,CALDEIRÃO GRANDE DO PIAUÍ,-40.6374189126801,-7.3315596517844
PIAUÍ,CAMPINAS DO PIAUÍ,-41.8807452929818,-7.6547781279615
PIAUÍ,CAMPO ALEGRE DO FIDALGO,-41.8320133241580,-8.3744803806649
PIAUÍ,CAMPO GRANDE DO PIAUÍ,-41.0312009604020,-7.1359931202487
PIAUÍ,CAMPO LARGO DO PIAUÍ,-42.6260410416609,-3.8078689391976
PIAUÍ,CAMPO MAIOR,-42.1667446046900,-4.8291139265717
PIAUÍ,CANAVIEIRA,-43.7194280333653,-7.6946215595312
PIAUÍ,CANTO DO BURITI,-42.9440210219612,-8.1082319197228
PIAUÍ,CAPITÃO DE CAMPOS,-41.9435219724325,-4.4585592683976
PIAUÍ,CAPITÃO GERVÁSIO OLIVEIRA,-41.8161163123905,-8.4968378683873
PIAUÍ,CARACOL,-43.3342004507516,-9.2767652672052
PIAUÍ,CARAÚBAS DO PIAUÍ,-41.8412081259918,-3.4785905375350
PIAUÍ,CARIDADE DO PIAUÍ,-40.9903345467585,-7.7286523875636
PIAUÍ,CASTELO DO PIAUÍ,-41.5473162426661,-5.3215438708935
PIAUÍ,CAXINGÓ,-41.8826837610641,-3.4269384028485
PIAUÍ,COCAL,-41.5568448345735,-3.4704534896913
PIAUÍ,COCAL DE TELHA,-41.9790478739642,-4.5538157239161
PIAUÍ,COCAL DOS ALVES,-41.4554189108305,-3.6060725907543
PIAUÍ,COIVARAS,-42.2073159062840,-5.0913083513540
PIAUÍ,COLÔNIA DO GURGUÉIA,-43.7960171560657,-8.1875742163409
PIAUÍ,COLÔNIA DO PIAUÍ,-42.1771185063946,-7.2236575639522
PIAUÍ,CONCEIÇÃO DO CANINDÉ,-41.5966339439158,-7.8827041538753
PIAUÍ,CORONEL JOSÉ DIAS,-42.4703571012192,-8.8163694114899
PIAUÍ,CORRENTE,-45.1633125235767,-10.4409360381237
PIAUÍ,CRISTALÂNDIA DO PIAUÍ,-45.1860307001326,-10.6478037517985
PIAUÍ,CRISTINO CASTRO,-44.2244147473452,-8.8201862885102
PIAUÍ,CURIMATÁ,-44.3007222328749,-10.0312924303294
PIAUÍ,CURRAIS,-44.4030021530455,-9.0124338389368
PIAUÍ,CURRALINHOS,-42.8322105193044,-5.6204532293570
PIAUÍ,CURRAL NOVO DO PIAUÍ,-40.9010694707015,-7.8307971883910
PIAUÍ,DEMERVAL LOBÃO,-42.6742286110912,-5.3584654659105
PIAUÍ,DIRCEU ARCOVERDE,-42.4395699620089,-9.3352000440684
PIAUÍ,DOM EXPEDITO LOPES,-41.6523852113084,-6.9579018426874
PIAUÍ,DOMINGOS MOURÃO,-41.2718814488667,-4.2534336344923
PIAUÍ,DOM INOCÊNCIO,-41.9768511187551,-9.0080749434279
PIAUÍ,ELESBÃO VELOSO,-42.1381444495035,-6.2017194613117
PIAUÍ,ELISEU MARTINS,-43.6648111316973,-8.0964622895841
PIAUÍ,ESPERANTINA,-42.2353645251038,-3.8956045306383
PIAUÍ,FARTURA DO PIAUÍ,-42.7944014031782,-9.4786062862875
PIAUÍ,FLORES DO PIAUÍ,-42.9243058019859,-7.7917756017730
PIAUÍ,FLORESTA DO PIAUÍ,-41.8003142914390,-7.4667953749069
PIAUÍ,FLORIANO,-43.0206447383255,-6.7696724337864
PIAUÍ,FRANCINÓPOLIS,-42.2633660989624,-6.3952926225871
PIAUÍ,FRANCISCO AYRES,-42.6911278448088,-6.6233435319054
PIAUÍ,FRANCISCO MACEDO,-40.7955673541325,-7.3278710405544
PIAUÍ,FRANCISCO SANTOS,-41.1361573365002,-6.9941711375442
PIAUÍ,FRONTEIRAS,-40.6172329306571,-7.0884125328916
PIAUÍ,GEMINIANO,-41.3575797604714,-7.1584176258898
PIAUÍ,GILBUÉS,-45.3469199782092,-9.8345699055161
PIAUÍ,GUADALUPE,-43.5669236545324,-6.7852469086731
PIAUÍ,GUARIBAS,-43.6877210274290,-9.3951113037193
PIAUÍ,HUGO NAPOLEÃO,-42.5625630466248,-5.9877878906995
PIAUÍ,ILHA GRANDE,-41.8197731840424,-2.8540086071972
PIAUÍ,INHUMA,-41.7101940564928,-6.6671203406794
PIAUÍ,IPIRANGA DO PIAUÍ,-41.7399141279438,-6.8269326782870
PIAUÍ,ISAÍAS COELHO,-41.6794480824978,-7.7343106966578
PIAUÍ,ITAINÓPOLIS,-41.4800253104968,-7.4512808131423
PIAUÍ,ITAUEIRA,-43.0254965077817,-7.6081166325284
PIAUÍ,JACOBINA DO PIAUÍ,-41.2107620506702,-7.9362644875045
PIAUÍ,JAICÓS,-41.1464748134968,-7.3531523272213
PIAUÍ,JARDIM DO MULATO,-42.6339595632103,-6.0965775947567
PIAUÍ,JATOBÁ DO PIAUÍ,-41.8198222185671,-4.7731589442888
PIAUÍ,JERUMENHA,-43.5027430064021,-7.0846321938726
PIAUÍ,JOÃO COSTA,-42.4178485806471,-8.4891257219296
PIAUÍ,JOAQUIM PIRES,-42.1876898035533,-3.5131035478767
PIAUÍ,JOCA MARQUES,-42.4277370789814,-3.4880338255659
PIAUÍ,JOSÉ DE FREITAS,-42.5783745315457,-4.7630506394827
PIAUÍ,JUAZEIRO DO PIAUÍ,-41.7026007596661,-5.1613727542935
PIAUÍ,JÚLIO BORGES,-44.2437006323999,-10.3267868136990
PIAUÍ,JUREMA,-43.1331097430468,-9.2220247204558
PIAUÍ,LAGOINHA DO PIAUÍ,-42.6273837298549,-5.8365834406235
PIAUÍ,LAGOA ALEGRE,-42.6167425390488,-4.5087297492294
PIAUÍ,LAGOA DO BARRO DO PIAUÍ,-41.5302754057350,-8.4824371151593
PIAUÍ,LAGOA DE SÃO FRANCISCO,-41.6054686902431,-4.3927463866533
PIAUÍ,LAGOA DO PIAUÍ,-42.6490132063022,-5.4121441696235
PIAUÍ,LAGOA DO SÍTIO,-41.5823863012861,-6.5153476297760
PIAUÍ,LANDRI SALES,-43.9310455151444,-7.2665999754135
PIAUÍ,LUÍS CORREIA,-41.6645672322748,-2.8815665358482
PIAUÍ,LUZILÂNDIA,-42.3716375238246,-3.4608176351807
PIAUÍ,MADEIRO,-42.5051412464910,-3.4842120051907
PIAUÍ,MANOEL EMÍDIO,-43.8754746716661,-8.0113586739757
PIAUÍ,MARCOLÂNDIA,-40.6628542913824,-7.4435566613611
PIAUÍ,MARCOS PARENTE,-43.8883140086213,-7.1192953774512
PIAUÍ,MASSAPÊ DO PIAUÍ,-41.1238546846189,-7.4654826844832
PIAUÍ,MATIAS OLÍMPIO,-42.5586289027608,-3.7110272834389
PIAUÍ,MIGUEL ALVES,-42.8931666492627,-4.1682155823207
PIAUÍ,MIGUEL LEÃO,-42.7358295252403,-5.6822417804360
PIAUÍ,MILTON BRANDÃO,-41.4479595412321,-4.6999534775574
PIAUÍ,MONSENHOR GIL,-42.6173989159071,-5.5514856313947
PIAUÍ,MONSENHOR HIPÓLITO,-41.0328934036477,-7.0035024726463
PIAUÍ,MONTE ALEGRE DO PIAUÍ,-45.2957402208575,-9.7558336680883
PIAUÍ,MORRO CABEÇA NO TEMPO,-43.9018743653614,-9.7193194921544
PIAUÍ,MORRO DO CHAPÉU DO PIAUÍ,-42.3090633949589,-3.7422550962199
PIAUÍ,MURICI DOS PORTELAS,-42.0967690817710,-3.3238597850735
PIAUÍ,NAZARÉ DO PIAUÍ,-42.6682272300917,-6.9671284910970
PIAUÍ,NAZÁRIA,-42.8140484695768,-5.3469250000000
PIAUÍ,NOSSA SENHORA DE NAZARÉ,-42.1793030784653,-4.6269320917417
PIAUÍ,NOSSA SENHORA DOS REMÉDIOS,-42.6239510484895,-3.9912253517846
PIAUÍ,NOVO ORIENTE DO PIAUÍ,-41.9287223144020,-6.4494051369150
PIAUÍ,NOVO SANTO ANTÔNIO,-41.9345074978553,-5.2860576439613
PIAUÍ,OEIRAS,-42.1314056604251,-7.0164180059629
PIAUÍ,OLHO D'ÁGUA DO PIAUÍ,-42.5785516089696,-5.8471585734454
PIAUÍ,PADRE MARCOS,-40.9058620823742,-7.3547121155185
PIAUÍ,PAES LANDIM,-42.2569576294243,-7.7755629145092
PIAUÍ,PAJEÚ DO PIAUÍ,-42.8169360897963,-7.8525200921766
PIAUÍ,PALMEIRA DO PIAUÍ,-44.2325685791726,-8.7295011187650
PIAUÍ,PALMEIRAIS,-43.0618435228749,-5.9797968360706
PIAUÍ,PAQUETÁ,-41.7013852455649,-7.1014662443006
PIAUÍ,PARNAGUÁ,-44.6343146131202,-10.2171809705429
PIAUÍ,PARNAÍBA,-41.7781705920245,-2.9033601445089
PIAUÍ,PASSAGEM FRANCA DO PIAUÍ,-42.4405267462900,-5.8562473203188
PIAUÍ,PATOS DO PIAUÍ,-41.2522813962752,-7.6807639350875
PIAUÍ,PAU D'ARCO DO PIAUÍ,-42.3888654971449,-5.2510934294111
PIAUÍ,PAULISTANA,-41.1470964851424,-8.1414361348951
PIAUÍ,PAVUSSU,-43.2217523026137,-7.9642869547705
PIAUÍ,PEDRO II,-41.4585599330709,-4.4270552654162
PIAUÍ,PEDRO LAURENTINO,-42.2860736700138,-8.0668825943878
PIAUÍ,NOVA SANTA RITA,-42.0482620010711,-8.0749647181190
PIAUÍ,PICOS,-41.4688267146679,-7.0813739121994
PIAUÍ,PIMENTEIRAS,-41.4151586072493,-6.2416884096669
PIAUÍ,PIO IX,-40.6182727863013,-6.8326873012451
PIAUÍ,PIRACURUCA,-41.7090415496498,-3.9292874935799
PIAUÍ,PIRIPIRI,-41.7785048523536,-4.2760686932554
PIAUÍ,PORTO,-42.7109259993477,-3.8914229950345
PIAUÍ,PORTO ALEGRE DO PIAUÍ,-44.1948371018939,-6.9717246866463
PIAUÍ,PRATA DO PIAUÍ,-42.2042236753317,-5.6647976938028
PIAUÍ,QUEIMADA NOVA,-41.4170249221793,-8.5854253469422
PIAUÍ,REDENÇÃO DO GURGUÉIA,-44.5812141605608,-9.4934482414448
PIAUÍ,REGENERAÇÃO,-42.6850242313083,-6.2401830211403
PIAUÍ,RIACHO FRIO,-44.9525300482529,-10.1287276881395
PIAUÍ,RIBEIRA DO PIAUÍ,-42.7140434913463,-7.6905755011574
PIAUÍ,RIBEIRO GONÇALVES,-45.2456386842602,-7.5580342449722
PIAUÍ,RIO GRANDE DO PIAUÍ,-43.1401827860102,-7.7708571198052
PIAUÍ,SANTA CRUZ DO PIAUÍ,-41.7619256890988,-7.1776264961006
PIAUÍ,SANTA CRUZ DOS MILAGRES,-41.9584459530597,-5.8081209983531
PIAUÍ,SANTA FILOMENA,-45.9205564410726,-9.1067957053363
PIAUÍ,SANTA LUZ,-44.1295859062574,-8.9446242168948
PIAUÍ,SANTANA DO PIAUÍ,-41.5184805579744,-6.9490717639245
PIAUÍ,SANTA ROSA DO PIAUÍ,-42.2808138760659,-6.8014550582892
PIAUÍ,SANTO ANTÔNIO DE LISBOA,-41.2337647421245,-6.9818484769770
PIAUÍ,SANTO ANTÔNIO DOS MILAGRES,-42.7111968050238,-6.0467175962931
PIAUÍ,SANTO INÁCIO DO PIAUÍ,-41.9182128600204,-7.4223368373733
PIAUÍ,SÃO BRAZ DO PIAUÍ,-42.9990725170726,-9.0625605358737
PIAUÍ,SÃO FÉLIX DO PIAUÍ,-42.1135025901891,-5.9328676629868
PIAUÍ,SÃO FRANCISCO DE ASSIS DO PIAUÍ,-41.6895971516657,-8.2377547497306
PIAUÍ,SÃO FRANCISCO DO PIAUÍ,-42.5385319870052,-7.2439761038639
PIAUÍ,SÃO GONÇALO DO GURGUÉIA,-45.3014055105630,-10.0299401062335
PIAUÍ,SÃO GONÇALO DO PIAUÍ,-42.6988309840949,-5.9896674395270
PIAUÍ,SÃO JOÃO DA CANABRAVA,-41.3460536519366,-6.8189309895029
PIAUÍ,SÃO JOÃO DA FRONTEIRA,-41.2562869592890,-3.9385974341153
PIAUÍ,SÃO JOÃO DA SERRA,-41.8992637510964,-5.5087975377752
PIAUÍ,SÃO JOÃO DA VARJOTA,-41.8637422049467,-6.9190178385234
PIAUÍ,SÃO JOÃO DO ARRAIAL,-42.4531261733045,-3.8131688736189
PIAUÍ,SÃO JOÃO DO PIAUÍ,-42.2564375329406,-8.3488496879934
PIAUÍ,SÃO JOSÉ DO DIVINO,-41.8301087692171,-3.8057163564995
PIAUÍ,SÃO JOSÉ DO PEIXE,-42.5701794157863,-7.4930087809078
PIAUÍ,SÃO JOSÉ DO PIAUÍ,-41.4794072341782,-6.8706262446521
PIAUÍ,SÃO JULIÃO,-40.8369132447998,-7.0853150045772
PIAUÍ,SÃO LOURENÇO DO PIAUÍ,-42.5443519903866,-9.1720018770773
PIAUÍ,SÃO LUIS DO PIAUÍ,-41.3228378191747,-6.8281438297646
PIAUÍ,SÃO MIGUEL DA BAIXA GRANDE,-42.1853773737544,-5.8622986342878
PIAUÍ,SÃO MIGUEL DO FIDALGO,-42.3705290411912,-7.5849691189280
PIAUÍ,SÃO MIGUEL DO TAPUIO,-41.3197984895240,-5.5006636991275
PIAUÍ,SÃO PEDRO DO PIAUÍ,-42.7236601720603,-5.9139516465610
PIAUÍ,SÃO RAIMUNDO NONATO,-42.6922851641908,-9.0153604823547
PIAUÍ,SEBASTIÃO BARROS,-44.8332841775162,-10.8166752206016
PIAUÍ,SEBASTIÃO LEAL,-44.0676917696104,-7.5773856301520
PIAUÍ,SIGEFREDO PACHECO,-41.7275592247990,-4.9116891642374
PIAUÍ,SIMÕES,-40.8175090683555,-7.5991371656834
PIAUÍ,SIMPLÍCIO MENDES,-41.9109103616519,-7.8579572938830
PIAUÍ,SOCORRO DO PIAUÍ,-42.5046917237203,-7.8649380571039
PIAUÍ,SUSSUAPARA,-41.3922677309410,-7.0170105888281
PIAUÍ,TAMBORIL DO PIAUÍ,-42.9096888302070,-8.4004317800923
PIAUÍ,TANQUE DO PIAUÍ,-42.2839013404883,-6.5963534674198
PIAUÍ,TERESINA,-42.8052704582233,-5.0863419523217
PIAUÍ,UNIÃO,-42.8629297159505,-4.5860181591401
PIAUÍ,URUÇUÍ,-44.5602559238525,-7.2295033445625
PIAUÍ,VALENÇA DO PIAUÍ,-41.7405359913299,-6.3981960227157
PIAUÍ,VÁRZEA BRANCA,-42.9694445350297,-9.2365410893456
PIAUÍ,VÁRZEA GRANDE,-42.2531016233438,-6.5429475544247
PIAUÍ,VERA MENDES,-41.4797367500354,-7.6028492828920
PIAUÍ,VILA NOVA DO PIAUÍ,-40.9378013964930,-7.1410464339525
PIAUÍ,WALL FERRAZ,-41.9089536203039,-7.2357790064127
CEARÁ,ABAIARA,-39.0475466361851,-7.3569765958983
CEARÁ,ACARAPE,-38.7056237709826,-4.2231384093724
CEARÁ,ACARAÚ,-40.1182414711655,-2.8853105400950
CEARÁ,ACOPIARA,-39.4557052761772,-6.0927619950000
CEARÁ,AIUABA,-40.1231600775541,-6.5632984400517
CEARÁ,ALCÂNTARAS,-40.5446381225739,-3.5869837692482
CEARÁ,ALTANEIRA,-39.7458206389421,-6.9974983508052
CEARÁ,ALTO SANTO,-38.2727781487196,-5.5220817397452
CEARÁ,AMONTADA,-39.8288227917225,-3.3648778034773
CEARÁ,ANTONINA DO NORTE,-39.9823868418819,-6.7796878471183
CEARÁ,APUIARÉS,-39.4304227833004,-3.9480185186148
CEARÁ,AQUIRAZ,-38.3898029588509,-3.9061945000000
CEARÁ,ARACATI,-37.7727525989113,-4.5670664700000
CEARÁ,ARACOIABA,-38.8094409691659,-4.3703938069767
CEARÁ,ARARENDÁ,-40.8310967349814,-4.7519382719922
CEARÁ,ARARIPE,-40.1374458093569,-7.2061837891807
CEARÁ,ARATUBA,-39.0475545617960,-4.4169306449926
CEARÁ,ARNEIROZ,-40.1614437123740,-6.3194258030222
CEARÁ,ASSARÉ,-39.8712747474926,-6.8726071122115
CEARÁ,AURORA,-38.9769908769444,-6.9403918320065
CEARÁ,BAIXIO,-38.7201259159638,-6.7271620493217
CEARÁ,BANABUIÚ,-38.9257848049298,-5.3150473039948
CEARÁ,BARBALHA,-39.3023163692257,-7.3071721269127
CEARÁ,BARREIRA,-38.6385018295574,-4.2887622667682
CEARÁ,BARRO,-38.7798806460522,-7.1682087266852
CEARÁ,BARROQUINHA,-41.1394815381655,-3.0091167461919
CEARÁ,BATURITÉ,-38.8800213756291,-4.3312051564086
CEARÁ,BEBERIBE,-38.1232730421463,-4.1747632211772
CEARÁ,BELA CRUZ,-40.1668429070243,-3.0551067243133
CEARÁ,BOA VIAGEM,-39.7332823425095,-5.1257438700568
CEARÁ,BREJO SANTO,-38.9855138673635,-7.4916380086614
CEARÁ,CAMOCIM,-40.8475277409380,-2.9009665745879
CEARÁ,CAMPOS SALES,-40.3790031301681,-7.0733835000000
CEARÁ,CANINDÉ,-39.3103429528638,-4.3553442896919
CEARÁ,CAPISTRANO,-38.9018287595054,-4.4598966121402
CEARÁ,CARIDADE,-39.1930329149954,-4.2249600007846
CEARÁ,CARIRÉ,-40.4738448077338,-3.9516118800128
CEARÁ,CARIRIAÇU,-39.2843720295557,-7.0415280000000
CEARÁ,CARIÚS,-39.4976886800605,-6.5311279378648
CEARÁ,CARNAUBAL,-40.9356315772790,-4.1639885623653
CEARÁ,CASCAVEL,-38.2396859406771,-4.1314336782075
CEARÁ,CATARINA,-39.8794662283390,-6.1275562908168
CEARÁ,CATUNDA,-40.2058037894278,-4.6515493856597
CEARÁ,CAUCAIA,-38.6640175358384,-3.7364870000000
CEARÁ,CEDRO,-39.0597431480294,-6.6049605000000
CEARÁ,CHAVAL,-41.2445958219436,-3.0389011890918
CEARÁ,CHORÓ,-39.1374675315576,-4.8425156592867
CEARÁ,CHOROZINHO,-38.5012856666587,-4.3021709139785
CEARÁ,COREAÚ,-40.6569510757545,-3.5494878611102
CEARÁ,CRATEÚS,-40.6684001308448,-5.1769505507955
CEARÁ,CRATO,-39.4083902977886,-7.2317527899305
CEARÁ,CROATÁ,-40.9090450981578,-4.4140572655123
CEARÁ,CRUZ,-40.1712787065420,-2.9167080503555
CEARÁ,DEPUTADO IRAPUAN PINHEIRO,-39.2615417650871,-5.9089623738294
CEARÁ,ERERÊ,-38.3472589620963,-6.0313327299345
CEARÁ,EUSÉBIO,-38.4451218386123,-3.8869728866781
CEARÁ,FARIAS BRITO,-39.5708350212066,-6.9271099806491
CEARÁ,FORQUILHA,-40.2587689981082,-3.7989577430850
CEARÁ,FORTALEZA,-38.5899275550432,-3.7238050350000
CEARÁ,FORTIM,-37.7989754860384,-4.4498049174128
CEARÁ,FRECHEIRINHA,-40.8214052011868,-3.7606119314528
CEARÁ,GENERAL SAMPAIO,-39.4535299504286,-4.0510412746535
CEARÁ,GRAÇA,-40.7555248995640,-4.0469387939891
CEARÁ,GRANJA,-40.8299389910215,-3.1189521561698
CEARÁ,GRANJEIRO,-39.2203088858466,-6.8888843728803
CEARÁ,GROAÍRAS,-40.3821460238860,-3.9119541292040
CEARÁ,GUAIÚBA,-38.6344347805213,-4.0402435005008
CEARÁ,GUARACIABA DO NORTE,-40.7526331779113,-4.1624510671404
CEARÁ,GUARAMIRANGA,-38.9406332850600,-4.2620509186039
CEARÁ,HIDROLÂNDIA,-40.4018171243637,-4.4079994442596
CEARÁ,HORIZONTE,-38.4942395585521,-4.0932780000000
CEARÁ,IBARETAMA,-38.8216783127295,-4.8186515779064
CEARÁ,IBIAPINA,-40.8939290197956,-3.9361312622411
CEARÁ,IBICUITINGA,-38.6408630485786,-4.9691664228246
CEARÁ,ICAPUÍ,-37.3535630985971,-4.7155494878313
CEARÁ,ICÓ,-38.8630851788798,-6.4030312519304
CEARÁ,IGUATU,-39.2999056781645,-6.3605547200459
CEARÁ,INDEPENDÊNCIA,-40.3093482605607,-5.3980281002609
CEARÁ,IPAPORANGA,-40.7579663399773,-4.9006297857145
CEARÁ,IPAUMIRIM,-38.7159037441224,-6.7883612602133
CEARÁ,IPU,-40.7187261447301,-4.3134316851772
CEARÁ,IPUEIRAS,-40.7156965105938,-4.5437854950000
CEARÁ,IRACEMA,-38.3046616556988,-5.8098425528638
CEARÁ,IRAUÇUBA,-39.7922381150857,-3.7454188017038
CEARÁ,ITAIÇABA,-37.8216295136860,-4.6834047118556
CEARÁ,ITAITINGA,-38.5264051494908,-3.9704590163055
CEARÁ,ITAPAGÉ,-39.5835332386222,-3.6856731098420
CEARÁ,ITAPIPOCA,-39.5834815757710,-3.4994355000000
CEARÁ,ITAPIÚNA,-38.9206739559252,-4.5547401746513
CEARÁ,ITAREMA,-39.9156777489290,-2.9233480000000
CEARÁ,ITATIRA,-39.6179040158845,-4.5289225623330
CEARÁ,JAGUARETAMA,-38.7625262979074,-5.6108895632262
CEARÁ,JAGUARIBARA,-38.4630972955508,-5.4575020339635
CEARÁ,JAGUARIBE,-38.6230050492668,-5.8864590450000
CEARÁ,JAGUARUANA,-37.7823914809586,-4.8395551682976
CEARÁ,JARDIM,-39.2841644573661,-7.5855364656784
CEARÁ,JATI,-39.0051387612294,-7.6927415947833
CEARÁ,JIJOCA DE JERICOACOARA,-40.4387354018727,-2.8996827088706
CEARÁ,JUAZEIRO DO NORTE,-39.3169933556143,-7.2107660000000
CEARÁ,JUCÁS,-39.5267762434303,-6.5225492730586
CEARÁ,LAVRAS DA MANGABEIRA,-38.9672750539277,-6.7547479768401
CEARÁ,LIMOEIRO DO NORTE,-38.0990948704529,-5.1502390200000
CEARÁ,MADALENA,-39.5757886826003,-4.8524341766020
CEARÁ,MARACANAÚ,-38.6244186465865,-3.8769644510204
CEARÁ,MARANGUAPE,-38.6858512476873,-3.8918694600000
CEARÁ,MARCO,-40.1516436427496,-3.1207070250000
CEARÁ,MARTINÓPOLE,-40.6993551750691,-3.2250122274422
CEARÁ,MASSAPÊ,-40.3421348648013,-3.5238705842825
CEARÁ,MAURITI,-38.7727954380310,-7.3873980000000
CEARÁ,MERUOCA,-40.4508809567861,-3.5390066623199
CEARÁ,MILAGRES,-38.9431567662076,-7.3104277967819
CEARÁ,MILHÃ,-39.2035741816436,-5.6795641008870
CEARÁ,MIRAÍMA,-39.9700648820021,-3.5685999065574
CEARÁ,MISSÃO VELHA,-39.1451977078653,-7.2432315137852
CEARÁ,MOMBAÇA,-39.6244052478572,-5.7470045400000
CEARÁ,MONSENHOR TABOSA,-40.0700674615929,-4.7830912914587
CEARÁ,MORADA NOVA,-38.3649073450731,-5.0969520001672
CEARÁ,MORAÚJO,-40.6835989271198,-3.4663632743993
CEARÁ,MORRINHOS,-40.1241788929331,-3.2288305342539
CEARÁ,MUCAMBO,-40.7452804651593,-3.9060299795982
CEARÁ,MULUNGU,-38.9930659239268,-4.2995283200777
CEARÁ,NOVA OLINDA,-39.6794854726644,-7.0841028113890
CEARÁ,NOVA RUSSAS,-40.5653033548825,-4.7068083499366
CEARÁ,NOVO ORIENTE,-40.7747672682117,-5.5338648355461
CEARÁ,OCARA,-38.5985379827902,-4.4850665445478
CEARÁ,ORÓS,-38.9135959845487,-6.2427987836876
CEARÁ,PACAJUS,-38.4670222648935,-4.1705405100000
CEARÁ,PACATUBA,-38.6182993120325,-3.9861200222939
CEARÁ,PACOTI,-38.9258889386659,-4.2247654330707
CEARÁ,PACUJÁ,-40.6967361072542,-3.9783943860572
CEARÁ,PALHANO,-37.9662351610974,-4.7439450767733
CEARÁ,PALMÁCIA,-38.8450290663103,-4.1489817745244
CEARÁ,PARACURU,-39.0295453441225,-3.4116350091571
CEARÁ,PARAIPABA,-39.1481155272123,-3.4361967278711
CEARÁ,PARAMBU,-40.6942072413457,-6.2103360017224
CEARÁ,PARAMOTI,-39.2394664950313,-4.0974323319734
CEARÁ,PEDRA BRANCA,-39.7139376447036,-5.4546855000000
CEARÁ,PENAFORTE,-39.0741275240802,-7.8299146120557
CEARÁ,PENTECOSTE,-39.2670087314690,-3.7962667361544
CEARÁ,PEREIRO,-38.4591360389541,-6.0450769020302
CEARÁ,PINDORETAMA,-38.3000879762561,-4.0278039927412
CEARÁ,PIQUET CARNEIRO,-39.4194062555380,-5.8085695597734
CEARÁ,PIRES FERREIRA,-40.6465412477527,-4.2421541432344
CEARÁ,PORANGA,-40.9263795102653,-4.7439507319412
CEARÁ,PORTEIRAS,-39.1153314614829,-7.5357464416067
CEARÁ,POTENGI,-40.0321325356878,-7.0901794696071
CEARÁ,POTIRETAMA,-38.1579178531648,-5.7216679037422
CEARÁ,QUITERIANÓPOLIS,-40.7044888468331,-5.8470092293282
CEARÁ,QUIXADÁ,-39.0117446758304,-4.9637000000000
CEARÁ,QUIXELÔ,-39.2022943664550,-6.2512119003795
CEARÁ,QUIXERAMOBIM,-39.2943542269635,-5.1984048374256
CEARÁ,QUIXERÉ,-37.9905222250863,-5.0687289544407
CEARÁ,REDENÇÃO,-38.7295707505904,-4.2229581502010
CEARÁ,RERIUTABA,-40.5846120036545,-4.1415676008306
CEARÁ,RUSSAS,-37.9754312969010,-4.9397378153640
CEARÁ,SABOEIRO,-39.9045806984177,-6.5364333524808
CEARÁ,SALITRE,-40.4647520646300,-7.2845286849737
CEARÁ,SANTANA DO ACARAÚ,-40.2094628598127,-3.4597753417311
CEARÁ,SANTANA DO CARIRI,-39.7379797815466,-7.1808977832822
CEARÁ,SANTA QUITÉRIA,-40.1535078135820,-4.3332705000000
CEARÁ,SÃO BENEDITO,-40.8644898757611,-4.0447269900000
CEARÁ,SÃO GONÇALO DO AMARANTE,-38.9720758652803,-3.6056325000000
CEARÁ,SÃO JOÃO DO JAGUARIBE,-38.2719407043798,-5.2686305504859
CEARÁ,SÃO LUÍS DO CURU,-39.2416061849713,-3.6730092532286
CEARÁ,SENADOR POMPEU,-39.3753253308417,-5.5893437521311
CEARÁ,SENADOR SÁ,-40.4637920044144,-3.3517896280370
CEARÁ,SOBRAL,-40.3486680336582,-3.6880376837644
CEARÁ,SOLONÓPOLE,-39.0082249132446,-5.7263512910078
CEARÁ,TABULEIRO DO NORTE,-38.1297371281720,-5.2438038698774
CEARÁ,TAMBORIL,-40.3190685132960,-4.8339285831559
CEARÁ,TARRAFAS,-39.7584941948653,-6.6825903147374
CEARÁ,TAUÁ,-40.2926246551049,-6.0029989398579
CEARÁ,TEJUÇUOCA,-39.5768263617106,-3.9897118085937
CEARÁ,TIANGUÁ,-40.9917056226916,-3.7226740000000
CEARÁ,TRAIRI,-39.2722318726330,-3.2644201691339
CEARÁ,TURURU,-39.4343635369541,-3.5955952354998
CEARÁ,UBAJARA,-40.9071439279714,-3.8484914352166
CEARÁ,UMARI,-38.7013257158543,-6.6472443752098
CEARÁ,UMIRIM,-39.3423844042955,-3.6755618980981
CEARÁ,URUBURETAMA,-39.5081780697542,-3.6230168336817
CEARÁ,URUOCA,-40.5611630276796,-3.3132306604293
CEARÁ,VARJOTA,-40.4789932740701,-4.1828222827599
CEARÁ,VÁRZEA ALEGRE,-39.2989329971137,-6.7918458556432
CEARÁ,VIÇOSA DO CEARÁ,-41.0916290750336,-3.5660127532006
RIO GRANDE DO NORTE,ACARI,-36.6437388699983,-6.4420850889339
RIO GRANDE DO NORTE,AÇU,-36.9179232199589,-5.5719459992467
RIO GRANDE DO NORTE,AFONSO BEZERRA,-36.5091482339596,-5.4987342681308
RIO GRANDE DO NORTE,ÁGUA NOVA,-38.2908249542281,-6.2047167188350
RIO GRANDE DO NORTE,ALEXANDRIA,-38.0192888913064,-6.4171363379443
RIO GRANDE DO NORTE,ALMINO AFONSO,-37.7631253023649,-6.1574206925254
RIO GRANDE DO NORTE,ALTO DO RODRIGUES,-36.7594926142107,-5.2938077876380
RIO GRANDE DO NORTE,ANGICOS,-36.6054328737792,-5.6603653290863
RIO GRANDE DO NORTE,ANTÔNIO MARTINS,-37.8857345656395,-6.2160044547074
RIO GRANDE DO NORTE,APODI,-37.7977844762710,-5.6637698192272
RIO GRANDE DO NORTE,AREIA BRANCA,-37.1312717156955,-4.9528976305617
RIO GRANDE DO NORTE,ARÊS,-35.1606360959418,-6.1937122744826
RIO GRANDE DO NORTE,AUGUSTO SEVERO,-37.3088725642243,-5.8581144240471
RIO GRANDE DO NORTE,BAÍA FORMOSA,-35.0090361817886,-6.3699923041887
RIO GRANDE DO NORTE,BARAÚNA,-37.6181801950628,-5.0766181048047
RIO GRANDE DO NORTE,BARCELONA,-35.9267945279531,-5.9481318482859
RIO GRANDE DO NORTE,BENTO FERNANDES,-35.8216988907063,-5.6923833176941
RIO GRANDE DO NORTE,BODÓ,-36.4138377023340,-5.9880452499411
RIO GRANDE DO NORTE,BOM JESUS,-35.5888032897951,-5.9863188523411
RIO GRANDE DO NORTE,BREJINHO,-35.3573540540418,-6.1925790587000
RIO GRANDE DO NORTE,CAIÇARA DO NORTE,-36.0558571538451,-5.0629944093632
RIO GRANDE DO NORTE,CAIÇARA DO RIO DO VENTO,-35.9997904110862,-5.7590871427766
RIO GRANDE DO NORTE,CAICÓ,-37.0964887711922,-6.4591388313933
RIO GRANDE DO NORTE,CAMPO REDONDO,-36.1825045694096,-6.2433830531734
RIO GRANDE DO NORTE,CANGUARETAMA,-35.1285396639931,-6.3749252157203
RIO GRANDE DO NORTE,CARAÚBAS,-37.5537021978471,-5.7911761028587
RIO GRANDE DO NORTE,CARNAÚBA DOS DANTAS,-36.5952519214664,-6.5607325173668
RIO GRANDE DO NORTE,CARNAUBAIS,-36.8346423564497,-5.3397853943190
RIO GRANDE DO NORTE,CEARÁ-MIRIM,-35.4244869285300,-5.6409835919118
RIO GRANDE DO NORTE,CERRO CORÁ,-36.3457414414503,-6.0348271931366
RIO GRANDE DO NORTE,CORONEL EZEQUIEL,-36.2147710444246,-6.3834023902944
RIO GRANDE DO NORTE,CORONEL JOÃO PESSOA,-38.4402581627126,-6.2601122113908
RIO GRANDE DO NORTE,CRUZETA,-36.7917053203155,-6.4131764069557
RIO GRANDE DO NORTE,CURRAIS NOVOS,-36.5162192209593,-6.2646722189556
RIO GRANDE DO NORTE,DOUTOR SEVERIANO,-38.3736830788222,-6.0936873705591
RIO GRANDE DO NORTE,PARNAMIRIM,-35.2592090738617,-5.9103697582539
RIO GRANDE DO NORTE,ENCANTO,-38.3048789906516,-6.1111342006329
RIO GRANDE DO NORTE,EQUADOR,-36.7164124288599,-6.9458427490748
RIO GRANDE DO NORTE,ESPÍRITO SANTO,-35.3170907892286,-6.3355717032012
RIO GRANDE DO NORTE,EXTREMOZ,-35.3140254320232,-5.7027099362087
RIO GRANDE DO NORTE,FELIPE GUERRA,-37.6913850557146,-5.6019617698082
RIO GRANDE DO NORTE,FERNANDO PEDROZA,-36.5324535353652,-5.6960157814674
RIO GRANDE DO NORTE,FLORÂNIA,-36.8140762988106,-6.1269519550116
RIO GRANDE DO NORTE,FRANCISCO DANTAS,-38.1256497554185,-6.0880967167433
RIO GRANDE DO NORTE,FRUTUOSO GOMES,-37.8409607540419,-6.1562327992920
RIO GRANDE DO NORTE,GALINHOS,-36.2746400699779,-5.0916897784115
RIO GRANDE DO NORTE,GOIANINHA,-35.2177861245435,-6.2505903899507
RIO GRANDE DO NORTE,GOVERNADOR DIX-SEPT ROSADO,-37.5219118430218,-5.4589138421060
RIO GRANDE DO NORTE,GROSSOS,-37.1574841600262,-4.9755148070741
RIO GRANDE DO NORTE,GUAMARÉ,-36.3181443773969,-5.1073629545918
RIO GRANDE DO NORTE,IELMO MARINHO,-35.5528293750625,-5.8153150382762
RIO GRANDE DO NORTE,IPANGUAÇU,-36.8528746046542,-5.4971483533050
RIO GRANDE DO NORTE,IPUEIRA,-37.1978561298861,-6.8155507618851
RIO GRANDE DO NORTE,ITAJÁ,-36.8698181053353,-5.6435476089682
RIO GRANDE DO NORTE,ITAÚ,-37.9882686256902,-5.8379360734251
RIO GRANDE DO NORTE,JAÇANÃ,-36.2055929077335,-6.4249733473658
RIO GRANDE DO NORTE,JANDAÍRA,-36.1305852719426,-5.3552800000000
RIO GRANDE DO NORTE,JANDUÍS,-37.4092111089131,-6.0160927028583
RIO GRANDE DO NORTE,JANUÁRIO CICCO,-35.6008919625750,-6.1560980225528
RIO GRANDE DO NORTE,JAPI,-35.9459348280456,-6.4605660133161
RIO GRANDE DO NORTE,JARDIM DE ANGICOS,-35.9699543298020,-5.6526312123534
RIO GRANDE DO NORTE,JARDIM DE PIRANHAS,-37.3492178522692,-6.3800975491908
RIO GRANDE DO NORTE,JARDIM DO SERIDÓ,-36.7745815233800,-6.5863362516830
RIO GRANDE DO NORTE,JOÃO CÂMARA,-35.8167878738553,-5.5384233833633
RIO GRANDE DO NORTE,JOÃO DIAS,-37.7969607820048,-6.2761140978431
RIO GRANDE DO NORTE,JOSÉ DA PENHA,-38.2844030704544,-6.3126884427709
RIO GRANDE DO NORTE,JUCURUTU,-37.0202258294130,-6.0334187841275
RIO GRANDE DO NORTE,JUNDIÁ,-35.3277885218596,-6.2691693310891
RIO GRANDE DO NORTE,LAGOA D'ANTA,-35.5997951777328,-6.3915023234988
RIO GRANDE DO NORTE,LAGOA DE PEDRAS,-35.4334827321932,-6.1497391019906
RIO GRANDE DO NORTE,LAGOA DE VELHOS,-35.8706988331384,-5.9999155193028
RIO GRANDE DO NORTE,LAGOA NOVA,-36.4589606695817,-6.0976692963938
RIO GRANDE DO NORTE,LAGOA SALGADA,-35.4724975676103,-6.1258182618582
RIO GRANDE DO NORTE,LAJES,-36.2427351264130,-5.6988303587817
RIO GRANDE DO NORTE,LAJES PINTADAS,-36.1184417929034,-6.1514320720581
RIO GRANDE DO NORTE,LUCRÉCIA,-37.8156328477028,-6.1169236352248
RIO GRANDE DO NORTE,LUÍS GOMES,-38.3864203751030,-6.4140281424327
RIO GRANDE DO NORTE,MACAÍBA,-35.3552371335816,-5.8572366196262
RIO GRANDE DO NORTE,MACAU,-36.6349731819010,-5.1133676503087
RIO GRANDE DO NORTE,MAJOR SALES,-38.3234550212287,-6.4037565657491
RIO GRANDE DO NORTE,MARCELINO VIEIRA,-38.1666126187356,-6.2935497877900
RIO GRANDE DO NORTE,MARTINS,-37.9113273956681,-6.0963474928715
RIO GRANDE DO NORTE,MAXARANGUAPE,-35.2620748680720,-5.5054562657738
RIO GRANDE DO NORTE,MESSIAS TARGINO,-37.5120589301593,-6.0764975053298
RIO GRANDE DO NORTE,MONTANHAS,-35.2876919575565,-6.4822429389357
RIO GRANDE DO NORTE,MONTE ALEGRE,-35.3320992692543,-6.0678766241082
RIO GRANDE DO NORTE,MONTE DAS GAMELEIRAS,-35.7866071234666,-6.4394660165222
RIO GRANDE DO NORTE,MOSSORÓ,-37.3568741367043,-5.1938012347087
RIO GRANDE DO NORTE,NATAL,-35.2522547280543,-5.7508985376121
RIO GRANDE DO NORTE,NÍSIA FLORESTA,-35.2113095644850,-6.0907141459035
RIO GRANDE DO NORTE,NOVA CRUZ,-35.4323003945869,-6.4800647920148
RIO GRANDE DO NORTE,OLHO-D'ÁGUA DO BORGES,-37.7118209785559,-5.9592583875311
RIO GRANDE DO NORTE,OURO BRANCO,-36.9462950766901,-6.6996589474256
RIO GRANDE DO NORTE,PARANÁ,-38.3111288501105,-6.4853305013425
RIO GRANDE DO NORTE,PARAÚ,-37.1016501352676,-5.7770555176126
RIO GRANDE DO NORTE,PARAZINHO,-35.8449895223578,-5.2307807344904
RIO GRANDE DO NORTE,PARELHAS,-36.6578048562049,-6.6887551971746
RIO GRANDE DO NORTE,RIO DO FOGO,-35.3848720422209,-5.2715586595912
RIO GRANDE DO NORTE,PASSA E FICA,-35.6473522143433,-6.4291154936536
RIO GRANDE DO NORTE,PASSAGEM,-35.3755657140696,-6.2744422129561
RIO GRANDE DO NORTE,PATU,-37.6401023994731,-6.1015320672853
RIO GRANDE DO NORTE,SANTA MARIA,-35.6903638553156,-5.8385187010895
RIO GRANDE DO NORTE,PAU DOS FERROS,-38.2032615200836,-6.1147318386501
RIO GRANDE DO NORTE,PEDRA GRANDE,-35.8759906400618,-5.1493874334980
RIO GRANDE DO NORTE,PEDRA PRETA,-36.1031358189646,-5.5819091562031
RIO GRANDE DO NORTE,PEDRO AVELINO,-36.3852292558735,-5.5240021820523
RIO GRANDE DO NORTE,PEDRO VELHO,-35.2229392416707,-6.4331894882038
RIO GRANDE DO NORTE,PENDÊNCIAS,-36.7191460402508,-5.2567881709425
RIO GRANDE DO NORTE,PILÕES,-38.0444431555028,-6.2657224402409
RIO GRANDE DO NORTE,POÇO BRANCO,-35.6550117699579,-5.6188515040917
RIO GRANDE DO NORTE,PORTALEGRE,-37.9851948257179,-6.0243280134919
RIO GRANDE DO NORTE,PORTO DO MANGUE,-36.7805380667257,-5.0696701522106
RIO GRANDE DO NORTE,PRESIDENTE JUSCELINO,-35.7056053223905,-6.1049127856499
RIO GRANDE DO NORTE,PUREZA,-35.5622682321378,-5.4659185859134
RIO GRANDE DO NORTE,RAFAEL FERNANDES,-38.2225028856897,-6.1864951980846
RIO GRANDE DO NORTE,RAFAEL GODEIRO,-37.7159740682361,-6.0782966477650
RIO GRANDE DO NORTE,RIACHO DA CRUZ,-37.9502747099434,-5.9358025220239
RIO GRANDE DO NORTE,RIACHO DE SANTANA,-38.3148330293793,-6.2647305468082
RIO GRANDE DO NORTE,RIACHUELO,-35.8262747639025,-5.8139469647121
RIO GRANDE DO NORTE,RODOLFO FERNANDES,-38.0628743291341,-5.7879936117114
RIO GRANDE DO NORTE,TIBAU,-37.2513026681358,-4.8414374104414
RIO GRANDE DO NORTE,RUY BARBOSA,-35.9354841632411,-5.8794289409581
RIO GRANDE DO NORTE,SANTA CRUZ,-36.0205165703447,-6.2300756233866
RIO GRANDE DO NORTE,SANTANA DO MATOS,-36.6541049650822,-5.9577271554018
RIO GRANDE DO NORTE,SANTANA DO SERIDÓ,-36.7368516418736,-6.7701517528996
RIO GRANDE DO NORTE,SANTO ANTÔNIO,-35.4751369839982,-6.3051739212975
RIO GRANDE DO NORTE,SÃO BENTO DO NORTE,-36.0354313533959,-5.0595010600826
RIO GRANDE DO NORTE,SÃO BENTO DO TRAIRÍ,-36.0868875014205,-6.3444812167406
RIO GRANDE DO NORTE,SÃO FERNANDO,-37.1854030398375,-6.3838610730285
RIO GRANDE DO NORTE,SÃO FRANCISCO DO OESTE,-38.1692961807558,-6.0006365705398
RIO GRANDE DO NORTE,SÃO GONÇALO DO AMARANTE,-35.3311560930852,-5.7895555402053
RIO GRANDE DO NORTE,SÃO JOÃO DO SABUGI,-37.2041396579503,-6.7112243500156
RIO GRANDE DO NORTE,SÃO JOSÉ DE MIPIBU,-35.2402746487129,-6.0704657116057
RIO GRANDE DO NORTE,SÃO JOSÉ DO CAMPESTRE,-35.7121150331211,-6.3155639806483
RIO GRANDE DO NORTE,SÃO JOSÉ DO SERIDÓ,-36.8832588929340,-6.4487985346451
RIO GRANDE DO NORTE,SÃO MIGUEL,-38.4963439736539,-6.2123429186061
RIO GRANDE DO NORTE,SÃO MIGUEL DO GOSTOSO,-35.6412835112052,-5.1228571163116
RIO GRANDE DO NORTE,SÃO PAULO DO POTENGI,-35.7643696369494,-5.8998203337798
RIO GRANDE DO NORTE,SÃO PEDRO,-35.6403110302273,-5.8979802825130
RIO GRANDE DO NORTE,SÃO RAFAEL,-36.8903975641003,-5.8009342265910
RIO GRANDE DO NORTE,SÃO TOMÉ,-36.0736631485719,-5.9730223470968
RIO GRANDE DO NORTE,SÃO VICENTE,-36.6886618516821,-6.2149638781654
RIO GRANDE DO NORTE,SENADOR ELÓI DE SOUZA,-35.6956637751617,-6.0362264287733
RIO GRANDE DO NORTE,SENADOR GEORGINO AVELINO,-35.1241762279568,-6.1586943343692
RIO GRANDE DO NORTE,SERRA DE SÃO BENTO,-35.7034898198867,-6.4153669923303
RIO GRANDE DO NORTE,SERRA DO MEL,-37.0413013452291,-5.1652413482018
RIO GRANDE DO NORTE,SERRA NEGRA DO NORTE,-37.3949730105827,-6.6639843363731
RIO GRANDE DO NORTE,SERRINHA,-35.5013432340406,-6.2770915257477
RIO GRANDE DO NORTE,SERRINHA DOS PINTOS,-37.9615790488699,-6.1141293698225
RIO GRANDE DO NORTE,SEVERIANO MELO,-37.9565807059839,-5.7781877652876
RIO GRANDE DO NORTE,SÍTIO NOVO,-35.9104491798599,-6.1040915827820
RIO GRANDE DO NORTE,TABOLEIRO GRANDE,-38.0435675405776,-5.9267522922491
RIO GRANDE DO NORTE,TAIPU,-35.5988465612551,-5.6196666752728
RIO GRANDE DO NORTE,TANGARÁ,-35.8001895983091,-6.1973573683106
RIO GRANDE DO NORTE,TENENTE ANANIAS,-38.1792978897052,-6.4775437121867
RIO GRANDE DO NORTE,TENENTE LAURENTINO CRUZ,-36.7206601448861,-6.1472301594895
RIO GRANDE DO NORTE,TIBAU DO SUL,-35.0926003671736,-6.1880717592904
RIO GRANDE DO NORTE,TIMBAÚBA DOS BATISTAS,-37.2713399064401,-6.4632892630582
RIO GRANDE DO NORTE,TOUROS,-35.4552931657206,-5.2026068013968
RIO GRANDE DO NORTE,TRIUNFO POTIGUAR,-37.1837968505575,-5.8669590186349
RIO GRANDE DO NORTE,UMARIZAL,-37.8132584900854,-5.9899019795619
RIO GRANDE DO NORTE,UPANEMA,-37.2601469419864,-5.6417976592702
RIO GRANDE DO NORTE,VÁRZEA,-35.3747906643910,-6.3487998907307
RIO GRANDE DO NORTE,VENHA-VER,-38.4912301676647,-6.3194228368955
RIO GRANDE DO NORTE,VERA CRUZ,-35.4281095272090,-6.0456084817930
RIO GRANDE DO NORTE,VIÇOSA,-37.9474090159691,-5.9918571747343
RIO GRANDE DO NORTE,VILA FLOR,-35.0761274954455,-6.3127918709359
PARAÍBA,ÁGUA BRANCA,-37.6422090442572,-7.5110701505577
PARAÍBA,AGUIAR,-38.1775818446374,-7.0948057624531
PARAÍBA,ALAGOA GRANDE,-35.6338919827495,-7.0367750000000
PARAÍBA,ALAGOA NOVA,-35.7594565398200,-7.0577988253336
PARAÍBA,ALAGOINHA,-35.5454913506159,-6.9481404046324
PARAÍBA,ALCANTIL,-36.0606043308864,-7.7414770382965
PARAÍBA,ALGODÃO DE JANDAÍRA,-36.0060933987894,-6.9046940377676
PARAÍBA,ALHANDRA,-34.9119851554492,-7.4329953021859
PARAÍBA,SÃO JOÃO DO RIO DO PEIXE,-38.4454535708480,-6.7344308283205
PARAÍBA,AMPARO,-37.0647752481212,-7.5672115216128
PARAÍBA,APARECIDA,-38.0833382545419,-6.7836951415186
PARAÍBA,ARAÇAGI,-35.3832990883057,-6.8516966174831
PARAÍBA,ARARA,-35.7595417215504,-6.8261917212096
PARAÍBA,ARARUNA,-35.7359805119437,-6.5314470213167
PARAÍBA,AREIA,-35.7033914011072,-6.9655150000000
PARAÍBA,AREIA DE BARAÚNAS,-36.9435079583787,-7.1236950130236
PARAÍBA,AREIAL,-35.9228094312866,-7.0499610886938
PARAÍBA,AROEIRAS,-35.7155929489148,-7.5484620227072
PARAÍBA,ASSUNÇÃO,-36.7331874760572,-7.0763269436714
PARAÍBA,BAÍA DA TRAIÇÃO,-34.9499310949655,-6.6795291230306
PARAÍBA,BANANEIRAS,-35.6315999027685,-6.7496372750000
PARAÍBA,BARAÚNA,-36.2530413530428,-6.6424050352379
PARAÍBA,BARRA DE SANTANA,-35.9963140811176,-7.5228337806390
PARAÍBA,BARRA DE SANTA ROSA,-36.0597726422183,-6.7202526775558
PARAÍBA,BARRA DE SÃO MIGUEL,-36.3215359677565,-7.7526706261965
PARAÍBA,BAYEUX,-34.9291858200857,-7.1322764850000
PARAÍBA,BELÉM,-35.5362740820625,-6.6940426097774
PARAÍBA,BELÉM DO BREJO DO CRUZ,-37.5395024822564,-6.1885749976701
PARAÍBA,BERNARDINO BATISTA,-38.5488692212462,-6.4535477932165
PARAÍBA,BOA VENTURA,-38.2189508765067,-7.4222821452853
PARAÍBA,BOA VISTA,-36.2353736587535,-7.2579130805797
PARAÍBA,BOM JESUS,-38.6551428070451,-6.8179576511972
PARAÍBA,BOM SUCESSO,-37.9300236973884,-6.4450467229881
PARAÍBA,BONITO DE SANTA FÉ,-38.5164953050679,-7.3107630818579
PARAÍBA,BOQUEIRÃO,-36.1334047507110,-7.4826479198713
PARAÍBA,IGARACY,-38.1466946448252,-7.1793192913795
PARAÍBA,BORBOREMA,-35.5993759656005,-6.8043058831009
PARAÍBA,BREJO DO CRUZ,-37.5001626416753,-6.3477076067963
PARAÍBA,BREJO DOS SANTOS,-37.8237101751213,-6.3761833082129
PARAÍBA,CAAPORÃ,-34.9178501439554,-7.5142876413723
PARAÍBA,CABACEIRAS,-36.2843418898015,-7.4906698737100
PARAÍBA,CABEDELO,-34.8394300208048,-6.9669830632796
PARAÍBA,CACHOEIRA DOS ÍNDIOS,-38.6783031916558,-6.9239358528037
PARAÍBA,CACIMBA DE AREIA,-37.1582169542224,-7.1284733769428
PARAÍBA,CACIMBA DE DENTRO,-35.7928209013797,-6.6400167470411
PARAÍBA,CACIMBAS,-37.0604021093534,-7.2123593026499
PARAÍBA,CAIÇARA,-35.4691142820996,-6.6174697909200
PARAÍBA,CAJAZEIRAS,-38.5605303718409,-6.8904645000000
PARAÍBA,CAJAZEIRINHAS,-37.7991843341113,-6.9626928131822
PARAÍBA,CALDAS BRANDÃO,-35.3423820919597,-7.1717514370431
PARAÍBA,CAMALAÚ,-36.8316105814858,-7.8912420951266
PARAÍBA,CAMPINA GRANDE,-35.8838591147815,-7.2214970400000
PARAÍBA,CAPIM,-35.1677387140512,-6.9108443748682
PARAÍBA,CARAÚBAS,-36.4954780726943,-7.7310993724082
PARAÍBA,CARRAPATEIRA,-38.3442167253342,-7.0396542414522
PARAÍBA,CASSERENGUE,-35.8163048294656,-6.7837603257347
PARAÍBA,CATINGUEIRA,-37.6107199033242,-7.1252097835618
PARAÍBA,CATOLÉ DO ROCHA,-37.7485000905939,-6.3467529950000
PARAÍBA,CATURITÉ,-36.0206588240689,-7.4196183207303
PARAÍBA,CONCEIÇÃO,-38.5091579595304,-7.5602250866248
PARAÍBA,CONDADO,-37.6039713346287,-6.9123067772908
PARAÍBA,CONDE,-34.9071513370733,-7.2635718267160
PARAÍBA,CONGO,-36.6615328551699,-7.7925707775037
PARAÍBA,COREMAS,-37.9455372751750,-7.0169182841834
PARAÍBA,COXIXOLA,-36.6048295218776,-7.6287969606280
PARAÍBA,CRUZ DO ESPÍRITO SANTO,-35.0914891261586,-7.1413369618883
PARAÍBA,CUBATI,-36.3479297161771,-6.8623606092026
PARAÍBA,CUITÉ,-36.1532081655002,-6.4855553011543
PARAÍBA,CUITEGI,-35.5257412326659,-6.8958137426149
PARAÍBA,CUITÉ DE MAMANGUAPE,-35.2528248925397,-6.9141574733745
PARAÍBA,CURRAL DE CIMA,-35.2670572687864,-6.7174300292473
PARAÍBA,CURRAL VELHO,-38.2003914462447,-7.5380851076558
PARAÍBA,DAMIÃO,-35.9099425357662,-6.6318974073481
PARAÍBA,DESTERRO,-37.0921693225256,-7.2914475304320
PARAÍBA,VISTA SERRANA,-37.5679145327464,-6.7406872724242
PARAÍBA,DIAMANTE,-38.2650442086435,-7.4235834211503
PARAÍBA,DONA INÊS,-35.6225406506041,-6.6021227351519
PARAÍBA,DUAS ESTRADAS,-35.4181768047992,-6.6881329546836
PARAÍBA,EMAS,-37.7145859750777,-7.1079922323689
PARAÍBA,ESPERANÇA,-35.8585932869695,-7.0206850000000
PARAÍBA,FAGUNDES,-35.7846088757702,-7.3630616044485
PARAÍBA,FREI MARTINHO,-36.4520440619056,-6.4045158523546
PARAÍBA,GADO BRAVO,-35.7906509034521,-7.5829411773177
PARAÍBA,GUARABIRA,-35.4899649848849,-6.8527150000000
PARAÍBA,GURINHÉM,-35.4281860624289,-7.1232156684334
PARAÍBA,GURJÃO,-36.4862761217649,-7.2462216609322
PARAÍBA,IBIARA,-38.4055678575028,-7.4978512245459
PARAÍBA,IMACULADA,-37.5100748563998,-7.3885372613223
PARAÍBA,INGÁ,-35.6176892168187,-7.2950269135102
PARAÍBA,ITABAIANA,-35.3375333858727,-7.3309315000000
PARAÍBA,ITAPORANGA,-38.1525731066856,-7.3039804631169
PARAÍBA,ITAPOROROCA,-35.2462957146050,-6.8299201630414
PARAÍBA,ITATUBA,-35.6281612500039,-7.3749577550235
PARAÍBA,JACARAÚ,-35.2942824484025,-6.6129685867326
PARAÍBA,JERICÓ,-37.8086413774210,-6.5561949909408
PARAÍBA,JOÃO PESSOA,-34.8733848135386,-7.1493820200000
PARAÍBA,JUAREZ TÁVORA,-35.5911781067138,-7.1663446273336
PARAÍBA,JUAZEIRINHO,-36.5707010055171,-7.0653683106356
PARAÍBA,JUNCO DO SERIDÓ,-36.7164412260860,-6.9933376488561
PARAÍBA,JURIPIRANGA,-35.2394540486469,-7.3702907731825
PARAÍBA,JURU,-37.8192644890080,-7.5343071384346
PARAÍBA,LAGOA,-37.9150900701029,-6.5942086133349
PARAÍBA,LAGOA DE DENTRO,-35.3770436482357,-6.6705990496535
PARAÍBA,LAGOA SECA,-35.8514401351463,-7.1584124885586
PARAÍBA,LASTRO,-38.1792184928311,-6.5165306257842
PARAÍBA,LIVRAMENTO,-36.9486293039700,-7.3790028227583
PARAÍBA,LOGRADOURO,-35.4432993555945,-6.6153714222873
PARAÍBA,LUCENA,-34.8746090973938,-6.8988493384137
PARAÍBA,MÃE D'ÁGUA,-37.4281609949590,-7.2570490926971
PARAÍBA,MALTA,-37.5177757103802,-6.9071851234905
PARAÍBA,MAMANGUAPE,-35.1238932020901,-6.8337151469332
PARAÍBA,MANAÍRA,-38.1530716660803,-7.7046141415637
PARAÍBA,MARCAÇÃO,-35.0139243934696,-6.7700541740474
PARAÍBA,MARI,-35.3185424166403,-7.0563840000000
PARAÍBA,MARIZÓPOLIS,-38.3553961303769,-6.8446742770250
PARAÍBA,MASSARANDUBA,-35.7375152076896,-7.1801994710816
PARAÍBA,MATARACA,-35.0485576738377,-6.6005186543501
PARAÍBA,MATINHAS,-35.7709374162111,-7.1211683437426
PARAÍBA,MATO GROSSO,-37.7115726982213,-6.5426334911734
PARAÍBA,MATURÉIA,-37.3504338850628,-7.2659300019375
PARAÍBA,MOGEIRO,-35.4824246020059,-7.3094805323043
PARAÍBA,MONTADAS,-35.9582754292669,-7.0890963384550
PARAÍBA,MONTE HOREBE,-38.5836574944156,-7.2095264022605
PARAÍBA,MONTEIRO,-37.1226806805604,-7.8922170000000
PARAÍBA,MULUNGU,-35.4651434243147,-7.0278860316056
PARAÍBA,NATUBA,-35.5561446826129,-7.6409788247866
PARAÍBA,NAZAREZINHO,-38.3189125786079,-6.9127009191105
PARAÍBA,NOVA FLORESTA,-36.2024954255349,-6.4561399418328
PARAÍBA,NOVA OLINDA,-38.0410502007873,-7.4768427807538
PARAÍBA,NOVA PALMEIRA,-36.4187129743523,-6.6766058426448
PARAÍBA,OLHO D'ÁGUA,-37.7526855285604,-7.2249726485493
PARAÍBA,OLIVEDOS,-36.2436652193579,-6.9882256222903
PARAÍBA,OURO VELHO,-37.1543789425132,-7.6186521245103
PARAÍBA,PARARI,-36.6583244439251,-7.3167001007782
PARAÍBA,PASSAGEM,-37.0543919436503,-7.1328195966624
PARAÍBA,PATOS,-37.2769133372926,-7.0244916682193
PARAÍBA,PAULISTA,-37.6210556739873,-6.5940615797621
PARAÍBA,PEDRA BRANCA,-38.0722463078192,-7.4265644261301
PARAÍBA,PEDRA LAVRADA,-36.4720503638462,-6.7578814606452
PARAÍBA,PEDRAS DE FOGO,-35.1131779827065,-7.4015385000000
PARAÍBA,PIANCÓ,-37.9265190011780,-7.1925698759973
PARAÍBA,PICUÍ,-36.3470460251457,-6.5101356574065
PARAÍBA,PILAR,-35.2598804076248,-7.2598879849164
PARAÍBA,PILÕES,-35.6155405946994,-6.8692205282492
PARAÍBA,PILÕEZINHOS,-35.5305857040330,-6.8405687830433
PARAÍBA,PIRPIRITUBA,-35.4977157927507,-6.7808000984551
PARAÍBA,PITIMBU,-34.8139304142683,-7.4824133960313
PARAÍBA,POCINHOS,-36.0564422810101,-7.0786172693699
PARAÍBA,POÇO DANTAS,-38.4971655332399,-6.4071756420217
PARAÍBA,POÇO DE JOSÉ DE MOURA,-38.5099999913196,-6.5769188158550
PARAÍBA,POMBAL,-37.7982672713630,-6.7698554850000
PARAÍBA,PRATA,-37.0823339751871,-7.6969830843450
PARAÍBA,PRINCESA ISABEL,-37.9936640096162,-7.7338664589850
PARAÍBA,PUXINANÃ,-35.9584940731246,-7.1489066440629
PARAÍBA,QUEIMADAS,-35.8994339112229,-7.3607915000000
PARAÍBA,QUIXABÁ,-37.1470987043486,-7.0308176065740
PARAÍBA,REMÍGIO,-35.7958331901249,-6.9662929519890
PARAÍBA,PEDRO RÉGIS,-35.2930058538096,-6.6444714972661
PARAÍBA,RIACHÃO,-35.6627216943535,-6.5426765278899
PARAÍBA,RIACHÃO DO BACAMARTE,-35.6553876583291,-7.2505947732792
PARAÍBA,RIACHÃO DO POÇO,-35.2612426920122,-7.1515036157403
PARAÍBA,RIACHO DE SANTO ANTÔNIO,-36.1567097727418,-7.6902953445402
PARAÍBA,RIACHO DOS CAVALOS,-37.6538353910347,-6.4364942491411
PARAÍBA,RIO TINTO,-35.0788522259515,-6.8084485000000
PARAÍBA,SALGADINHO,-36.8455028942862,-7.1030347330887
PARAÍBA,SALGADO DE SÃO FÉLIX,-35.4433017394971,-7.3553573137171
PARAÍBA,SANTA CECÍLIA,-35.8774744666280,-7.7429059622160
PARAÍBA,SANTA CRUZ,-38.0605555920097,-6.5350141675178
PARAÍBA,SANTA HELENA,-38.6427896706556,-6.7186941996429
PARAÍBA,SANTA INÊS,-38.5595999296318,-7.6277797185430
PARAÍBA,SANTA LUZIA,-36.9216783300447,-6.8718632618825
PARAÍBA,SANTANA DE MANGUEIRA,-38.3325811539417,-7.5512134095287
PARAÍBA,SANTANA DOS GARROTES,-37.9850430999296,-7.3876444597284
PARAÍBA,JOCA CLAUDINO,-38.4791522142449,-6.4840552966913
PARAÍBA,SANTA RITA,-34.9658392782709,-7.1380845000000
PARAÍBA,SANTA TERESINHA,-37.4417177954698,-7.0841917052625
PARAÍBA,SANTO ANDRÉ,-36.6309754330546,-7.2204891228332
PARAÍBA,SÃO BENTO,-37.4493496644220,-6.4893075407914
PARAÍBA,SÃO BENTINHO,-37.7227213005654,-6.8903085089975
PARAÍBA,SÃO DOMINGOS DO CARIRI,-36.4359294005056,-7.6329907025031
PARAÍBA,SÃO DOMINGOS,-37.9426027474446,-6.8159249809165
PARAÍBA,SÃO FRANCISCO,-38.0971412339127,-6.6192799824053
PARAÍBA,SÃO JOÃO DO CARIRI,-36.5315209358872,-7.3902013357551
PARAÍBA,SÃO JOÃO DO TIGRE,-36.8457433215685,-8.0810428893648
PARAÍBA,SÃO JOSÉ DA LAGOA TAPADA,-38.1577701892674,-6.9442314894140
PARAÍBA,SÃO JOSÉ DE CAIANA,-38.2978233702354,-7.2491596310837
PARAÍBA,SÃO JOSÉ DE ESPINHARAS,-37.3251148399789,-6.8441796084636
PARAÍBA,SÃO JOSÉ DOS RAMOS,-35.3779610544874,-7.2471273572163
PARAÍBA,SÃO JOSÉ DE PIRANHAS,-38.5010748206497,-7.1208699574438
PARAÍBA,SÃO JOSÉ DE PRINCESA,-38.0988027202559,-7.7429694507639
PARAÍBA,SÃO JOSÉ DO BONFIM,-37.3092447284815,-7.1609149773590
PARAÍBA,SÃO JOSÉ DO BREJO DO CRUZ,-37.3538296761784,-6.2129153407398
PARAÍBA,SÃO JOSÉ DO SABUGI,-36.7974932181972,-6.7755314068371
PARAÍBA,SÃO JOSÉ DOS CORDEIROS,-36.8027778195065,-7.3926426969584
PARAÍBA,SÃO MAMEDE,-37.0948573852401,-6.9302283713902
PARAÍBA,SÃO MIGUEL DE TAIPU,-35.2104513918798,-7.2492335303871
PARAÍBA,SÃO SEBASTIÃO DE LAGOA DE ROÇA,-35.8664139115223,-7.1009459552440
PARAÍBA,SÃO SEBASTIÃO DO UMBUZEIRO,-37.0084169780022,-8.1571187546847
PARAÍBA,SAPÉ,-35.2304326165497,-7.0871110000000
PARAÍBA,SERIDÓ,-36.4107641095568,-6.8569085631729
PARAÍBA,SERRA BRANCA,-36.6556668629229,-7.4805025244756
PARAÍBA,SERRA DA RAIZ,-35.4427388368849,-6.6855176500537
PARAÍBA,SERRA GRANDE,-38.3748947870419,-7.2141477578403
PARAÍBA,SERRA REDONDA,-35.6742704972443,-7.1825494246827
PARAÍBA,SERRARIA,-35.6441425707571,-6.8170889428473
PARAÍBA,SERTÃOZINHO,-35.4417507457045,-6.7507975459617
PARAÍBA,SOBRADO,-35.2381954790313,-7.1445756136374
PARAÍBA,SOLÂNEA,-35.6561584077255,-6.7598975000000
PARAÍBA,SOLEDADE,-36.3626648603770,-7.0587413777763
PARAÍBA,SOSSÊGO,-36.2482238788383,-6.7675275288827
PARAÍBA,SOUSA,-38.2296050806011,-6.7633780050000
PARAÍBA,SUMÉ,-36.8802761457321,-7.6710536151471
PARAÍBA,TACIMA,-35.6388366564942,-6.4889169424547
PARAÍBA,TAPEROÁ,-36.8289985342818,-7.2095393509969
PARAÍBA,TAVARES,-37.8785919324605,-7.6357084461942
PARAÍBA,TEIXEIRA,-37.2515615776267,-7.2237029086148
PARAÍBA,TENÓRIO,-36.6279998744085,-6.9382604029317
PARAÍBA,TRIUNFO,-38.5980983312750,-6.5768355073857
PARAÍBA,UIRAÚNA,-38.4070270101528,-6.5249270951308
PARAÍBA,UMBUZEIRO,-35.6714708228878,-7.6982063293553
PARAÍBA,VÁRZEA,-36.9927210043315,-6.7708072467828
PARAÍBA,VIEIRÓPOLIS,-38.2778434980653,-6.5457135516858
PARAÍBA,ZABELÊ,-37.0935519728886,-8.0768741972494
PERNAMBUCO,ABREU E LIMA,-34.8991305847304,-7.9044489900000
PERNAMBUCO,AFOGADOS DA INGAZEIRA,-37.6376860181022,-7.7483275858315
PERNAMBUCO,AFRÂNIO,-41.0057973410949,-8.5110912837552
PERNAMBUCO,AGRESTINA,-35.9467768374600,-8.4559730000000
PERNAMBUCO,ÁGUA PRETA,-35.5185573511919,-8.7091225523117
PERNAMBUCO,ÁGUAS BELAS,-37.1219571685606,-9.1145895000000
PERNAMBUCO,ALAGOINHA,-36.7754560083166,-8.4662705229847
PERNAMBUCO,ALIANÇA,-35.2285014970650,-7.6047298084634
PERNAMBUCO,ALTINHO,-36.0596997585832,-8.4895925000000
PERNAMBUCO,AMARAJI,-35.4507729209957,-8.3784870000000
PERNAMBUCO,ANGELIM,-36.2848143554983,-8.8903742079099
PERNAMBUCO,ARAÇOIABA,-35.0939665275382,-7.7856418725145
PERNAMBUCO,ARARIPINA,-40.5024605749941,-7.5781415000000
PERNAMBUCO,ARCOVERDE,-37.0565055646245,-8.4239405000000
PERNAMBUCO,BARRA DE GUABIRABA,-35.6628188858245,-8.4209350375797
PERNAMBUCO,BARREIROS,-35.1990859873173,-8.8141379901069
PERNAMBUCO,BELÉM DE MARIA,-35.8399240901317,-8.6212019106173
PERNAMBUCO,BELÉM DO SÃO FRANCISCO,-38.9615995649726,-8.7514627800859
PERNAMBUCO,BELO JARDIM,-36.4200350830180,-8.3352954393583
PERNAMBUCO,BETÂNIA,-38.0387381366471,-8.2698407896267
PERNAMBUCO,BEZERROS,-35.7544879458780,-8.2353595000000
PERNAMBUCO,BODOCÓ,-39.9361631850394,-7.7793426269914
PERNAMBUCO,BOM CONSELHO,-36.6793143857070,-9.1633829848855
PERNAMBUCO,BOM JARDIM,-35.5871395022878,-7.7995121807400
PERNAMBUCO,BONITO,-35.7285279259275,-8.4722605000000
PERNAMBUCO,BREJÃO,-36.5646966592673,-9.0272491507205
PERNAMBUCO,BREJINHO,-37.2873345539798,-7.3456712759663
PERNAMBUCO,BREJO DA MADRE DE DEUS,-36.3703914413319,-8.1489565000000
PERNAMBUCO,BUENOS AIRES,-35.3295704142006,-7.7243722100354
PERNAMBUCO,BUÍQUE,-37.1569881148450,-8.6220590406823
PERNAMBUCO,CABO DE SANTO AGOSTINHO,-35.0384889718131,-8.2898642302979
PERNAMBUCO,CABROBÓ,-39.3098413379707,-8.5151054832691
PERNAMBUCO,CACHOEIRINHA,-36.2359914117891,-8.4868310730387
PERNAMBUCO,CAETÉS,-36.6248040076124,-8.7755948447888
PERNAMBUCO,CALÇADO,-36.3332880795364,-8.7383779437323
PERNAMBUCO,CALUMBI,-38.1537459242791,-7.9384273266750
PERNAMBUCO,CAMARAGIBE,-34.9957213563856,-8.0205217674976
PERNAMBUCO,CAMOCIM DE SÃO FÉLIX,-35.7651947265538,-8.3621380400623
PERNAMBUCO,CAMUTANGA,-35.2827906438477,-7.4070824199391
PERNAMBUCO,CANHOTINHO,-36.1935748780740,-8.8838705621562
PERNAMBUCO,CAPOEIRAS,-36.6237980172928,-8.7361426797426
PERNAMBUCO,CARNAÍBA,-37.7933989025510,-7.8030582189057
PERNAMBUCO,CARNAUBEIRA DA PENHA,-38.7434219469465,-8.3206079646765
PERNAMBUCO,CARPINA,-35.2580606059131,-7.8468867164173
PERNAMBUCO,CARUARU,-35.9670733600535,-8.2858980000000
PERNAMBUCO,CASINHAS,-35.7253231033555,-7.7432065679200
PERNAMBUCO,CATENDE,-35.7216666573487,-8.6703075000000
PERNAMBUCO,CEDRO,-39.2371382153378,-7.7174692333034
PERNAMBUCO,CHÃ DE ALEGRIA,-35.2137267362110,-7.9979007801744
PERNAMBUCO,CHÃ GRANDE,-35.4647408125141,-8.2401127765140
PERNAMBUCO,CONDADO,-35.1041184906515,-7.5893822550000
PERNAMBUCO,CORRENTES,-36.3297018953137,-9.1286655015191
PERNAMBUCO,CORTÊS,-35.5415869000023,-8.4751512172918
PERNAMBUCO,CUMARU,-35.6946989631154,-8.0150324428643
PERNAMBUCO,CUPIRA,-35.9502573664167,-8.6112826601640
PERNAMBUCO,CUSTÓDIA,-37.6410965906668,-8.0890020000000
PERNAMBUCO,DORMENTES,-40.7707358130966,-8.4486569865154
PERNAMBUCO,ESCADA,-35.2361574244476,-8.3625219900000
PERNAMBUCO,EXU,-39.7227283392676,-7.5163070000000
PERNAMBUCO,FEIRA NOVA,-35.3905979864640,-7.9487277421648
PERNAMBUCO,FERNANDO DE NORONHA,-32.4351863280529,-3.8520214007818
PERNAMBUCO,FERREIROS,-35.2440702124351,-7.4454942052589
PERNAMBUCO,FLORES,-37.9714561137782,-7.8617144749308
PERNAMBUCO,FLORESTA,-38.5712393419872,-8.6008265000000
PERNAMBUCO,FREI MIGUELINHO,-35.9231276419375,-7.9444582474013
PERNAMBUCO,GAMELEIRA,-35.3866107834559,-8.5838357705434
PERNAMBUCO,GARANHUNS,-36.4930502821005,-8.8889055300000
PERNAMBUCO,GLÓRIA DO GOITÁ,-35.2923223922623,-7.9996084721272
PERNAMBUCO,GOIANA,-34.9983762971528,-7.5592318548672
PERNAMBUCO,GRANITO,-39.6192863432021,-7.7092532823497
PERNAMBUCO,GRAVATÁ,-35.5714923938373,-8.2059995000000
PERNAMBUCO,IATI,-36.8472759684337,-9.0457092508795
PERNAMBUCO,IBIMIRIM,-37.6900466896833,-8.5387622082497
PERNAMBUCO,IBIRAJUBA,-36.1804630923865,-8.5805349356059
PERNAMBUCO,IGARASSU,-34.9105833875875,-7.8283719900000
PERNAMBUCO,IGUARACI,-37.5188211184962,-7.8447743013054
PERNAMBUCO,INAJÁ,-37.8244851112304,-8.9020460788760
PERNAMBUCO,INGAZEIRA,-37.4576704743563,-7.6777971945153
PERNAMBUCO,IPOJUCA,-35.0634719379371,-8.3969865000000
PERNAMBUCO,IPUBI,-40.1502087501672,-7.6497045000000
PERNAMBUCO,ITACURUBA,-38.6863416893124,-8.7245150647897
PERNAMBUCO,ITAÍBA,-37.4189484589274,-8.9400544003599
PERNAMBUCO,ILHA DE ITAMARACÁ,-34.8239505670340,-7.7465733176639
PERNAMBUCO,ITAMBÉ,-35.1106273574317,-7.4092638600000
PERNAMBUCO,ITAPETIM,-37.1884393109605,-7.3784285284220
PERNAMBUCO,ITAPISSUMA,-34.8892710487235,-7.7740347647465
PERNAMBUCO,ITAQUITINGA,-35.1026145695038,-7.6663936085023
PERNAMBUCO,JABOATÃO DOS GUARARAPES,-34.9211734672603,-8.1653914673575
PERNAMBUCO,JAQUEIRA,-35.7973952137599,-8.7279698780460
PERNAMBUCO,JATAÚBA,-36.4988285484163,-7.9872577772456
PERNAMBUCO,JATOBÁ,-38.2750376623843,-9.1850699925214
PERNAMBUCO,JOÃO ALFREDO,-35.5915023689903,-7.8601887270399
PERNAMBUCO,JOAQUIM NABUCO,-35.5292418261614,-8.6268982994564
PERNAMBUCO,JUCATI,-36.4903865236772,-8.7070289643746
PERNAMBUCO,JUPI,-36.4117337384655,-8.7060968527934
PERNAMBUCO,JUREMA,-36.1359544906229,-8.7196671740285
PERNAMBUCO,LAGOA DO CARRO,-35.3126019234256,-7.8442324952026
PERNAMBUCO,LAGOA DE ITAENGA,-35.2928036525271,-7.9323781785402
PERNAMBUCO,LAGOA DO OURO,-36.4643169318296,-9.1241718379251
PERNAMBUCO,LAGOA DOS GATOS,-35.9071210443245,-8.6492548645765
PERNAMBUCO,LAGOA GRANDE,-40.2707251264837,-8.9950514850000
PERNAMBUCO,LAJEDO,-36.3214966175308,-8.6628568658394
PERNAMBUCO,LIMOEIRO,-35.4552610509597,-7.8801980000000
PERNAMBUCO,MACAPARANA,-35.4498749786749,-7.5556806987472
PERNAMBUCO,MACHADOS,-35.5141405623355,-7.6885724856259
PERNAMBUCO,MANARI,-37.6268229454830,-8.9601081446340
PERNAMBUCO,MARAIAL,-35.8141175724592,-8.7830776013350
PERNAMBUCO,MIRANDIBA,-38.7345645822767,-8.1202438021545
PERNAMBUCO,MORENO,-35.0948690998839,-8.1186945300000
PERNAMBUCO,NAZARÉ DA MATA,-35.2213386961744,-7.7376880000000
PERNAMBUCO,OLINDA,-34.8613103898235,-7.9926600753229
PERNAMBUCO,OROBÓ,-35.6029820966855,-7.7378951336655
PERNAMBUCO,OROCÓ,-39.5952457761053,-8.6179456461377
PERNAMBUCO,OURICURI,-40.0814625767368,-7.8831519750000
PERNAMBUCO,PALMARES,-35.5883359937581,-8.6790825000000
PERNAMBUCO,PALMEIRINA,-36.3273109987233,-9.0016832851433
PERNAMBUCO,PANELAS,-36.0015757987346,-8.6672422849748
PERNAMBUCO,PARANATAMA,-36.6584292680601,-8.9201453380001
PERNAMBUCO,PARNAMIRIM,-39.5757868229726,-8.0901383271691
PERNAMBUCO,PASSIRA,-35.5816849952227,-7.9788839418341
PERNAMBUCO,PAUDALHO,-35.1791510623855,-7.8971350050000
PERNAMBUCO,PAULISTA,-34.8847916197368,-7.9431880000000
PERNAMBUCO,PEDRA,-36.9427981488871,-8.4984765000000
PERNAMBUCO,PESQUEIRA,-36.6955147218979,-8.3554561078350
PERNAMBUCO,PETROLÂNDIA,-38.2207335453001,-8.9773434643833
PERNAMBUCO,PETROLINA,-40.4999993346523,-9.3973755150000
PERNAMBUCO,POÇÃO,-36.7058798977192,-8.1862270089412
PERNAMBUCO,POMBOS,-35.3961953582275,-8.1443598600287
PERNAMBUCO,PRIMAVERA,-35.3539433948819,-8.3313760861183
PERNAMBUCO,QUIPAPÁ,-36.0119895299569,-8.8278850220540
PERNAMBUCO,QUIXABA,-37.8464456195457,-7.7181264101409
PERNAMBUCO,RECIFE,-34.8889419445777,-8.0627624830524
PERNAMBUCO,RIACHO DAS ALMAS,-35.8608749474581,-8.1270327805880
PERNAMBUCO,RIBEIRÃO,-35.3761308237039,-8.5111160400000
PERNAMBUCO,RIO FORMOSO,-35.1554328172160,-8.6621710853259
PERNAMBUCO,SAIRÉ,-35.7102477662867,-8.3276135393392
PERNAMBUCO,SALGADINHO,-35.6380612404985,-7.9394837414172
PERNAMBUCO,SALGUEIRO,-39.1208509811040,-8.0706775221342
PERNAMBUCO,SALOÁ,-36.6927291741698,-8.9759954808679
PERNAMBUCO,SANHARÓ,-36.5625071953832,-8.3629619689234
PERNAMBUCO,SANTA CRUZ,-40.3376876555693,-8.2379611184133
PERNAMBUCO,SANTA CRUZ DA BAIXA VERDE,-38.1531381817594,-7.8214696823214
PERNAMBUCO,SANTA CRUZ DO CAPIBARIBE,-36.2039500171458,-7.9551895000000
PERNAMBUCO,SANTA FILOMENA,-40.6157751850240,-8.1605111672648
PERNAMBUCO,SANTA MARIA DA BOA VISTA,-39.8242357254967,-8.8041265000000
PERNAMBUCO,SANTA MARIA DO CAMBUCÁ,-35.8852433390024,-7.8318134262310
PERNAMBUCO,SANTA TEREZINHA,-37.4800327232567,-7.3703557392670
PERNAMBUCO,SÃO BENEDITO DO SUL,-35.9311226193514,-8.8104382341950
PERNAMBUCO,SÃO BENTO DO UNA,-36.4462983615963,-8.5198675205835
PERNAMBUCO,SÃO CAITANO,-36.1373597958186,-8.3273605000000
PERNAMBUCO,SÃO JOÃO,-36.3682530765329,-8.8775593754274
PERNAMBUCO,SÃO JOAQUIM DO MONTE,-35.8094911721096,-8.4321515000000
PERNAMBUCO,SÃO JOSÉ DA COROA GRANDE,-35.1457070847085,-8.8941951307298
PERNAMBUCO,SÃO JOSÉ DO BELMONTE,-38.7594537800097,-7.8617400547220
PERNAMBUCO,SÃO JOSÉ DO EGITO,-37.2750721852439,-7.4740251832665
PERNAMBUCO,SÃO LOURENÇO DA MATA,-35.0412775393210,-7.9959380000000
PERNAMBUCO,SÃO VICENTE FERRER,-35.4901218808857,-7.5922127325654
PERNAMBUCO,SERRA TALHADA,-38.2963149474727,-7.9879975200000
PERNAMBUCO,SERRITA,-39.2926231743621,-7.9543403980798
PERNAMBUCO,SERTÂNIA,-37.2673901012878,-8.0724500000000
PERNAMBUCO,SIRINHAÉM,-35.1164053546685,-8.5933695000000
PERNAMBUCO,MOREILÂNDIA,-39.5537537310788,-7.6299826881202
PERNAMBUCO,SOLIDÃO,-37.6474702370335,-7.6021256842490
PERNAMBUCO,SURUBIM,-35.7567841034417,-7.8351570573173
PERNAMBUCO,TABIRA,-37.5402657741875,-7.5911365130226
PERNAMBUCO,TACAIMBÓ,-36.2904043048255,-8.3156107248259
PERNAMBUCO,TACARATU,-38.1534611596796,-9.1056996442941
PERNAMBUCO,TAMANDARÉ,-35.0906465455374,-8.7046892785392
PERNAMBUCO,TAQUARITINGA DO NORTE,-36.0433376713092,-7.9021598257821
PERNAMBUCO,TEREZINHA,-36.6214759481747,-9.0577780594961
PERNAMBUCO,TERRA NOVA,-39.3744218378600,-8.2303579786437
PERNAMBUCO,TIMBAÚBA,-35.3187721210384,-7.5117456740195
PERNAMBUCO,TORITAMA,-36.0568434929956,-8.0066502709392
PERNAMBUCO,TRACUNHAÉM,-35.2379228139922,-7.8026886126673
PERNAMBUCO,TRINDADE,-40.2655906092822,-7.7617946257490
PERNAMBUCO,TRIUNFO,-38.1070603447143,-7.8308763587705
PERNAMBUCO,TUPANATINGA,-37.3402334718006,-8.7515816593182
PERNAMBUCO,TUPARETAMA,-37.3111818112638,-7.5987594648080
PERNAMBUCO,VENTUROSA,-36.8783720838699,-8.5765269011666
PERNAMBUCO,VERDEJANTE,-38.9742826042683,-7.9328837046219
PERNAMBUCO,VERTENTE DO LÉRIO,-35.8530027396954,-7.7748194553047
PERNAMBUCO,VERTENTES,-35.9893059310000,-7.9057426034968
PERNAMBUCO,VICÊNCIA,-35.3203006893160,-7.6529595000000
PERNAMBUCO,VITÓRIA DE SANTO ANTÃO,-35.2938642410814,-8.1187480000000
PERNAMBUCO,XEXÉU,-35.6242353157547,-8.8033134055288
ALAGOAS,ÁGUA BRANCA,-37.9407151759650,-9.2670254970505
ALAGOAS,ANADIA,-36.3008135714461,-9.6840837850505
ALAGOAS,ARAPIRACA,-36.6572965062872,-9.7559070107047
ALAGOAS,ATALAIA,-36.0214273162625,-9.5013867465002
ALAGOAS,BARRA DE SANTO ANTÔNIO,-35.5002980957816,-9.4092781093649
ALAGOAS,BARRA DE SÃO MIGUEL,-35.9074498726289,-9.8389982517493
ALAGOAS,BATALHA,-37.1270918944836,-9.6745930279704
ALAGOAS,BELÉM,-36.4944979894058,-9.5686482313361
ALAGOAS,BELO MONTE,-37.2784386581653,-9.8269888547666
ALAGOAS,BOCA DA MATA,-36.2117249001431,-9.6451445672726
ALAGOAS,BRANQUINHA,-36.0200335331731,-9.2465831083033
ALAGOAS,CACIMBINHAS,-36.9968696260236,-9.4051627510582
ALAGOAS,CAJUEIRO,-36.1563785914086,-9.3896605750894
ALAGOAS,CAMPESTRE,-35.5667177264544,-8.8483753531529
ALAGOAS,CAMPO ALEGRE,-36.3524347521970,-9.7834160389841
ALAGOAS,CAMPO GRANDE,-36.7908400521347,-9.9569226033202
ALAGOAS,CANAPI,-37.6056471506351,-9.1173802975864
ALAGOAS,CAPELA,-36.0750084923936,-9.4129315555221
ALAGOAS,CARNEIROS,-37.3747504206165,-9.4806797208781
ALAGOAS,CHÃ PRETA,-36.2993814518778,-9.2614224594057
ALAGOAS,COITÉ DO NÓIA,-36.5796842002285,-9.6384872707799
ALAGOAS,COLÔNIA LEOPOLDINA,-35.7197808593936,-8.9126882699502
ALAGOAS,COQUEIRO SECO,-35.7953630017330,-9.6375542709699
ALAGOAS,CORURIPE,-36.1760783105118,-10.1265472503749
ALAGOAS,CRAÍBAS,-36.7723914019128,-9.6199337973863
ALAGOAS,DELMIRO GOUVEIA,-37.9992334861769,-9.3845744469408
ALAGOAS,DOIS RIACHOS,-37.0898496479493,-9.3856708115463
ALAGOAS,ESTRELA DE ALAGOAS,-36.7583331109668,-9.3874053065793
ALAGOAS,FEIRA GRANDE,-36.6776855005338,-9.9004371988916
ALAGOAS,FELIZ DESERTO,-36.3071875176995,-10.2923806198663
ALAGOAS,FLEXEIRAS,-35.7243716385672,-9.2732354600454
ALAGOAS,GIRAU DO PONCIANO,-36.8303139029901,-9.8873641521582
ALAGOAS,IBATEGUARA,-35.9311844564205,-8.9769852176054
ALAGOAS,IGACI,-36.6281597164500,-9.5336886594647
ALAGOAS,IGREJA NOVA,-36.6533450125180,-10.1292988371728
ALAGOAS,INHAPI,-37.7526365210460,-9.2238987733318
ALAGOAS,JACARÉ DOS HOMENS,-37.2078334090177,-9.6366588283156
ALAGOAS,JACUÍPE,-35.4609975081236,-8.8403005075641
ALAGOAS,JAPARATINGA,-35.2586583540313,-9.0889743543446
ALAGOAS,JARAMATAIA,-37.0035959132308,-9.6583519387639
ALAGOAS,JEQUIÁ DA PRAIA,-36.0273340429838,-10.0095918935695
ALAGOAS,JOAQUIM GOMES,-35.7490302589120,-9.1359791462941
ALAGOAS,JUNDIÁ,-35.5555972975355,-8.9388767541623
ALAGOAS,JUNQUEIRO,-36.4715218222232,-9.9316103897425
ALAGOAS,LAGOA DA CANOA,-36.7357892600018,-9.8308756565045
ALAGOAS,LIMOEIRO DE ANADIA,-36.5038970865000,-9.7386131678145
ALAGOAS,MACEIÓ,-35.7016299134895,-9.6608221516311
ALAGOAS,MAJOR ISIDORO,-36.9847996142241,-9.5266440679399
ALAGOAS,MARAGOGI,-35.2230154091319,-9.0154564858241
ALAGOAS,MARAVILHA,-37.3566354220481,-9.2339970633531
ALAGOAS,MARECHAL DEODORO,-35.8930686988453,-9.7391557024438
ALAGOAS,MARIBONDO,-36.3066028985381,-9.5772499560084
ALAGOAS,MAR VERMELHO,-36.3850400240272,-9.4477726434894
ALAGOAS,MATA GRANDE,-37.7252240648916,-9.1148062576418
ALAGOAS,MATRIZ DE CAMARAGIBE,-35.5335548298030,-9.1585258247463
ALAGOAS,MESSIAS,-35.8403783005010,-9.3918122251096
ALAGOAS,MINADOR DO NEGRÃO,-36.8649157724720,-9.3036832606375
ALAGOAS,MONTEIRÓPOLIS,-37.2452720989471,-9.6023275388674
ALAGOAS,MURICI,-35.9475555856770,-9.3163011443469
ALAGOAS,NOVO LINO,-35.6609637180966,-8.9431588080764
ALAGOAS,OLHO D'ÁGUA DAS FLORES,-37.2978907897967,-9.5336012752747
ALAGOAS,OLHO D'ÁGUA DO CASADO,-37.8362428164813,-9.5014462652880
ALAGOAS,OLHO D'ÁGUA GRANDE,-36.8067459676714,-10.0584949600009
ALAGOAS,OLIVENÇA,-37.1908187180627,-9.5194564833550
ALAGOAS,OURO BRANCO,-37.3544437290231,-9.1634153640260
ALAGOAS,PALESTINA,-37.3311364505041,-9.6730971856491
ALAGOAS,PALMEIRA DOS ÍNDIOS,-36.6309840973114,-9.4061587984201
ALAGOAS,PÃO DE AÇÚCAR,-37.4351388565730,-9.7470418502569
ALAGOAS,PARICONHA,-38.0098260716315,-9.2578843851849
ALAGOAS,PARIPUEIRA,-35.5591051843043,-9.4663134783354
ALAGOAS,PASSO DE CAMARAGIBE,-35.4912752632186,-9.2448466579973
ALAGOAS,PAULO JACINTO,-36.3727420945597,-9.3733643824119
ALAGOAS,PENEDO,-36.5804602140903,-10.2961102979024
ALAGOAS,PIAÇABUÇU,-36.4343520081112,-10.4073624263407
ALAGOAS,PILAR,-35.9485175199678,-9.6068942926668
ALAGOAS,PINDOBA,-36.2865406443458,-9.4762107998014
ALAGOAS,PIRANHAS,-37.7503929130592,-9.6235592003033
ALAGOAS,POÇO DAS TRINCHEIRAS,-37.2792980528473,-9.3029136554046
ALAGOAS,PORTO CALVO,-35.3983344556037,-9.0524483141366
ALAGOAS,PORTO DE PEDRAS,-35.2970152177328,-9.1560861631158
ALAGOAS,PORTO REAL DO COLÉGIO,-36.8246292915239,-10.1737325641911
ALAGOAS,QUEBRANGULO,-36.4772220766618,-9.3235470553658
ALAGOAS,RIO LARGO,-35.8524223085924,-9.4861576083358
ALAGOAS,ROTEIRO,-35.9812102213933,-9.8321894901884
ALAGOAS,SANTA LUZIA DO NORTE,-35.8234877698639,-9.5967677416695
ALAGOAS,SANTANA DO IPANEMA,-37.2454070203705,-9.3722843627404
ALAGOAS,SANTANA DO MUNDAÚ,-36.2252341170425,-9.1650332207622
ALAGOAS,SÃO BRÁS,-36.8989486552451,-10.1203099965729
ALAGOAS,SÃO JOSÉ DA LAJE,-36.0573877321467,-9.0110658818802
ALAGOAS,SÃO JOSÉ DA TAPERA,-37.3837077656992,-9.5493957404368
ALAGOAS,SÃO LUÍS DO QUITUNDE,-35.5654908365835,-9.3141173692413
ALAGOAS,SÃO MIGUEL DOS CAMPOS,-36.0942642743776,-9.7799345761310
ALAGOAS,SÃO MIGUEL DOS MILAGRES,-35.3691193336324,-9.2671862950021
ALAGOAS,SÃO SEBASTIÃO,-36.5510919020052,-9.9316573889237
ALAGOAS,SATUBA,-35.8285402270771,-9.5694278677577
ALAGOAS,SENADOR RUI PALMEIRA,-37.4536462478126,-9.4633914489831
ALAGOAS,TANQUE D'ARCA,-36.4367415959431,-9.5319624423130
ALAGOAS,TAQUARANA,-36.4967676919618,-9.6423201053838
ALAGOAS,TEOTÔNIO VILELA,-36.3555631422205,-9.9074978830110
ALAGOAS,TRAIPU,-37.0060056722452,-9.9710593820065
ALAGOAS,UNIÃO DOS PALMARES,-36.0331428428074,-9.1595241165220
ALAGOAS,VIÇOSA,-36.2483932029197,-9.3770543544898
SERGIPE,AMPARO DE SÃO FRANCISCO,-36.9274836891810,-10.1339710339015
SERGIPE,AQUIDABÃ,-37.0221808560785,-10.2925180922232
